"pid","p_name","p_year","t_cap","t_count","t_rd","slr_cpc","wnd_cpc","slr_wn","tx_cpct","revenue","cost","profit","lon","lat","t_state","t_county","fips","county","state","env_sens_score","dac_sts","energy_brdn","foss_emplmt","coal_emplmt","outage_n","outage_dur","rci","energy_community","sid","lines","max_volt","min_volt","distance_m","distance_km"
1,"Traverse City",1996,600,1,44,0.67022141,0.6,1.117035684,0.6,234259.3974,101112.8123,133146.5851,-85.690193,44.776993,"MI","Leelanau County",26089,"Leelanau County","MI",10,0,5,0.000801,0.000249,1,278,82,0,145690,3,138,138,10539.6886264589,10.5396886264589
2,"Green Mountain Power",1997,550,11,40,8.086962382,6.05,1.336687997,6.05,2198378.982,1103430.945,1094948.037,-72.962913493316,42.8617782708838,"VT","Bennington County",50003,"Bennington County","VT",10,0,5,0,0,0,0,91,0,135584,2,115,115,11931.7177677612,11.9317177677612
3,"IDGWP",1998,750,3,50,0.854988409,2.25,0.379994849,2.25,509210.6647,281440.5832,227770.0814,-94.1408333390408,43.0349016667702,"IA","Kossuth County",19109,"Kossuth County","IA",1,0,5,6e-04,0.00025,0,0,66,0,130508,2,161,161,43802.3882261827,43.8023882261827
4,"Lake Benton I",1998,750,139,48,90.54091028,104.25,0.86849794,104.25,26100611.91,15970438.59,10130173.32,-96.3778812101317,44.3245535329593,"MN","Lincoln County",27081,"Lincoln County","MN",10,0,5,0.000505,0.000505,0,0,67,0,132492,3,115,115,13385.9341394527,13.3859341394527
5,"Lincoln Wind Energy Facility",1998,660,2,47,1.227316622,1.32,0.92978532,1.32,339081.3599,205883.225,133198.1349,-96.6248245055821,40.9037610100505,"NE","Lancaster County",31109,"Lancaster County","NE",1,0,2,0.000468,0.000468,0,0,96,0,131907,5,161,115,367.550696973839,0.367550696973839
6,"Vansycle I",1998,660,38,47,28.00379472,25.08,1.116578737,25.08,7070084.512,4214738.521,2855345.992,-118.639662410473,45.9317043280634,"OR","Umatilla County",41059,"Umatilla County","OR",10,0,3,0.000248,0.000248,1,399,89,0,202431,2,230,230,5114.95140174977,5.11495140174977
7,"Medicine Bow",1998,650,2,42,0,1.3,0,1.124733995,181568.6516,126613.6019,54955.04965,-106.247237997006,41.8402420013071,"WY","Carbon County",56007,"Carbon County","WY",25,0,2,0.010616,0.003673,0,0,68,1,204224,2,245,230,335.675400726657,0.335675400726657
8,"Cabazon",1999,750,51,50,17.58456734,38.25,0.459727251,38.25,10330324.04,4843963.986,5486360.058,-116.710015078108,33.914217291311,"CA","Riverside County",6065,"Riverside County","CA",55,0,2,0.000561,0.000476,7,8846,94,0,307979,3,115,115,1526.62292401761,1.52662292401761
9,"Cameron Ridge",1999,700,17,44,3.397729002,11.9,0.285523446,11.9,3986321.087,1401731.825,2584589.262,-118.314636480555,35.0781826310996,"CA","Kern County",6029,"Kern County","CA",10,0,3,0.006322,0.001217,16,21867,89,0,306225,4,500,220,26850.8991152283,26.8508991152283
10,"Enron Earth Smart/Green Power",1999,750,19,50,12.77158644,14.25,0.89625168,14.25,5031832.453,2193248.424,2838584.029,-116.573809813245,33.9158663543466,"CA","Riverside County",6065,"Riverside County","CA",1,0,2,0.000561,0.000476,7,8846,94,0,303773,1,115,115,851.223774194916,0.851223774194916
11,"Oak Creek Wind Power Phase 2",1999,700,33,48,7.631973785,23.1,0.330388476,23.1,7028037.771,2774368.095,4253669.676,-118.361703093603,35.0342534820203,"CA","Kern County",6029,"Kern County","CA",1,0,3,0.006322,0.001217,16,21867,89,0,306225,4,500,220,20715.5793203853,20.7155793203853
12,"San Gorgonio Westwinds II LLC",1999,700,62,48,51.56919106,43.4,1.188230209,43.4,14039927.35,7475545.109,6564382.243,-116.571908015412,33.8981045441132,"CA","Riverside County",6065,"Riverside County","CA",15,0,2,0.000561,0.000476,7,8846,94,0,307731,1,115,115,1550.53780040829,1.55053780040829
13,"Akron-Westfield School District",1999,600,1,44,0.202372864,0.6,0.337288107,0.6,149015.1451,72857.13636,76158.00878,-96.541191,42.829891,"IA","Plymouth County",19149,"Plymouth County","IA",10,0,3,0.000366,0,0,0,79,0,130484,5,345,230,31714.7227574574,31.7147227574574
14,"Cerro Gordo/Hawkeye Power/Clear Lake",1999,750,2,48,1.574272012,1.5,1.049514675,1.5,377415.4237,245336.311,132079.1127,-93.4548501196657,43.0707625388558,"IA","Cerro Gordo County",19033,"Cerro Gordo County","IA",1,0,4,0.000335,0.000335,0,0,88,0,130513,1,161,161,1475.34242814842,1.47534242814842
15,"Storm Lake I",1999,750,146,50,99.87431344,109.5,0.912094187,109.5,27153246.25,17097626.28,10055619.98,-95.3343795287331,42.6981705316609,"IA","Buena Vista County",19021,"Buena Vista County","IA",1,0,4,6e-04,0.00025,0,0,87,0,130492,3,161,161,16090.0943120929,16.0900943120929
16,"Storm Lake II",1999,750,108,50,76.98981305,81,0.950491519,81,20867207.08,12915813.09,7951393.991,-95.372616233338,42.7965312271275,"IA","Buena Vista County",19021,"Buena Vista County","IA",1,0,4,6e-04,0.00025,0,0,87,0,130492,3,161,161,27260.2125017875,27.2602125017875
17,"Waverly",1999,750,2,50,1.42077928,1.5,0.947186186,1.5,379068.9915,237474.0689,141594.9227,-95.263759999927,42.6876870055829,"IA","Buena Vista County",19021,"Buena Vista County","IA",1,0,4,6e-04,0.00025,0,0,87,0,130492,3,161,161,15800.9491129555,15.8009491129555
18,"Tholen & Petersen",2005,1650,6,82,8.857914861,9.9,0.894738875,9.9,2520969.169,1533219.686,987749.4831,-96.1312464262268,44.1250051039451,"MN","Pipestone County",27117,"Pipestone County","MN",30,0,5,0.000505,0.000505,0,0,67,0,138628,3,115,115,13807.5582001333,13.8075582001333
19,"Lakota Ridge",1999,750,11,48,7.161389154,8.25,0.86804717,8.25,2180083.386,1260109.79,919973.5967,-96.433318265942,44.3831087638811,"MN","Lincoln County",27081,"Lincoln County","MN",30,0,5,0.000505,0.000505,0,0,67,0,138638,2,345,345,8159.46555335337,8.15946555335337
20,"Moorhead",1999,750,1,48,0.683999162,0.75,0.911998883,0.75,193365.3484,116174.0296,77191.31884,-96.734795,46.895092,"MN","Clay County",27027,"Clay County","MN",10,0,2,0.000341,0.000341,0,0,93,0,130187,2,115,115,860.115689470261,0.860115689470261
21,"Shaokatan Hills",1999,660,18,47,12.25738482,11.88,1.031766399,11.88,2839215.976,1936384.309,902831.6663,-96.4311477213016,44.3977205050815,"MN","Lincoln County",27081,"Lincoln County","MN",10,0,5,0.000505,0.000505,0,0,67,0,138638,2,345,345,8227.24282295505,8.22724282295505
22,"Llano Estacado Wind Ranch at Texico",1999,660,1,47,0.542558095,0.66,0.822057719,0.66,158302.0943,98811.93871,59490.15557,-103.056976,34.360142,"NM","Curry County",35009,"Curry County","NM",10,0,3,0.017882,0.001407,0,0,86,0,318070,2,115,115,6357.62328815974,6.35762328815974
23,"Big Spring I",1999,660,43,47,31.2756995,28.38,1.102033104,28.38,6650729.605,4767119.079,1883610.526,-101.403629437458,32.1898436459439,"TX","Howard County",48227,"Howard County","TX",10,0,4,0,0,0,0,84,0,310180,3,138,138,15367.408750358,15.367408750358
24,"Rosiere Wind Farm",1999,660,17,47,15.30100338,11.22,1.363725791,11.22,3770173.879,2056980.29,1713193.59,-87.642317479055,44.654382979117,"WI","Kewaunee County",55061,"Kewaunee County","WI",30,0,3,0.000136,0.000136,1,63,81,0,132594,2,138,138,2750.48715163647,2.75048715163647
25,"Foote Creek 3",1999,750,33,44,0,24.75,0,21.4132049,4128803.8,2412346.645,1716457.154,-106.184491475421,41.6641931665424,"WY","Carbon County",56007,"Carbon County","WY",10,0,2,0.010616,0.003673,0,0,68,1,202479,7,230,134,1380.36610212993,1.38036610212993
26,"Foote Creek Rim II",1999,600,2,47,0.241912793,1.2,0.201593994,1.2,264218.1565,132476.6093,131741.5472,-106.189265999978,41.6571430000001,"WY","Carbon County",56007,"Carbon County","WY",10,0,2,0.010616,0.003673,0,0,68,1,202479,7,230,134,510.044039362967,0.510044039362967
27,"Medicine Bow",1999,710,5,47,0.712028579,3.55,0.200571431,3.55,769491.2422,391651.5413,377839.7009,-106.242718186274,41.8347566152895,"WY","Carbon County",56007,"Carbon County","WY",25,0,2,0.010616,0.003673,0,0,68,1,204224,2,245,230,402.014115700436,0.402014115700436
28,"North Shaokatan Wind Farm",2000,660,18,47,6.227434134,11.88,0.524194792,11.88,2923158.527,1559145.61,1364012.917,-96.4344168812797,44.4215857865122,"MN","Lincoln County",27081,"Lincoln County","MN",10,0,5,0.000505,0.000505,0,0,67,0,138638,2,345,345,8487.03577114768,8.48703577114768
29,"Madison Windpower",2000,1650,7,66,15.10811064,11.55,1.308061527,11.55,4211376.801,2074891.472,2136485.329,-75.4523106619561,42.8946914099428,"NY","Madison County",36053,"Madison County","NY",1,0,3,0.000551,0.000551,0,0,91,0,140356,3,115,115,258.460614573218,0.258460614573218
30,"Wethersfield",2000,660,10,47,8.491785686,6.6,1.286634195,6.6,2100377.396,1177759.075,922618.3207,-78.2453523156525,42.6831222850808,"NY","Wyoming County",36121,"Wyoming County","NY",1,0,4,0.001117,0.001024,0,0,68,0,124224,2,230,230,2047.928796263,2.047928796263
31,"Buffalo Mountain (Windrock)",2000,660,3,47,2.397569481,1.98,1.210893677,1.98,651609.3644,343660.9463,307948.4181,-84.3386866641461,36.1207823335075,"TN","Anderson County",47001,"Anderson County","TN",10,0,3,0.000648,0.000559,0,0,80,1,148546,3,161,161,317.447838532529,0.31744783853253
32,"Foote Creek 4",2000,600,29,45,11.36649166,17.4,0.653246647,17.4,3404254.101,2415901.533,988352.5679,-106.179818499938,41.6750023158585,"WY","Carbon County",56007,"Carbon County","WY",25,0,2,0.010616,0.003673,0,0,68,1,202479,7,230,134,2640.53729883445,2.64053729883445
33,"Medicine Bow",2000,710,2,47,0.28447848,1.42,0.200336958,1.42,312403.9438,156704.4339,155699.5099,-106.240241996874,41.8300630004666,"WY","Carbon County",56007,"Carbon County","WY",25,0,2,0.010616,0.003673,0,0,68,1,204224,2,245,230,962.185489956445,0.962185489956445
34,"Mountain View Power Partners I & II",2001,600,108,45,29.79032585,64.8,0.459727251,64.8,17500820.42,8212459.856,9288360.559,-116.600409297243,33.9044374496305,"CA","Riverside County",6065,"Riverside County","CA",1,0,2,0.000561,0.000476,7,8846,94,0,303773,1,115,115,2706.48719245632,2.70648719245632
35,"Peetz Table Wind Farm",2001,900,33,52,6.146420102,29.7,0.206950172,29.7,7405958.365,3288947.205,4117011.16,-103.160903488984,40.9449117384998,"CO","Logan County",8075,"Logan County","CO",15,0,6,0.000925,0.00036,0,0,89,0,201539,2,230,115,589.74616625406,0.58974616625406
36,"Ponnequin (PSCo)",2001,660,15,47,6.464290923,9.9,0.652958679,9.9,1865671.163,1372802.888,492868.2749,-104.802904310032,40.9955648642568,"CO","Weld County",8123,"Weld County","CO",10,0,2,0.012439,0.002143,0,0,93,0,201408,4,115,115,673.120203412088,0.673120203412088
37,"Top of Iowa",2001,900,89,52,77.28111711,80.1,0.964807954,80.1,18732961.7,12731745.26,6001216.44,-93.4133897445658,43.3667273934757,"IA","Worth County",19195,"Worth County","IA",10,0,5,0.000335,0.000335,0,0,77,0,133291,2,161,161,10005.8287919954,10.0058287919954
38,"Gray County Wind Farm Montezuma)",2001,660,170,47,94.15833022,112.2,0.839200804,112.2,26322539.43,17082938.95,9239600.48,-100.383000691492,37.6129896036577,"KS","Gray County",20069,"Gray County","KS",10,0,3,0.002347,0.000546,0,0,64,0,173225,3,115,115,24393.22628303,24.39322628303
39,"Hull I",2001,660,1,47,0.891051275,0.66,1.35007769,0.66,261109.095,120699.2795,140409.8156,-70.922195,42.30439,"MA","Plymouth County",25023,"Plymouth County","MA",128,0,3,0.000447,0.000471,0,0,92,0,133551,1,115,115,7677.63230515762,7.67763230515762
40,"Mackinaw City (Bay Windpower I)",2001,900,2,52,1.867415372,1.8,1.037452985,1.8,528163.8836,293339.2109,234824.6726,-84.7399410001022,45.7618025115746,"MI","Emmet County",26047,"Emmet County","MI",30,0,5,0.000801,0.000249,0,0,80,0,128576,4,138,138,3490.10872455784,3.49010872455784
41,"Agassiz Beach",2001,660,2,47,1.194566868,1.32,0.9049749,1.32,304553.4315,206617.2401,97936.19135,-96.435493,47.002392,"MN","Clay County",27027,"Clay County","MN",30,0,2,0.000341,0.000341,0,0,93,0,130187,2,115,115,26315.2015596742,26.3152015596742
42,"Champepaden, Chandler Hills Phase II",2001,660,3,47,1.886223642,1.98,0.952638203,1.98,467655.1944,312205.3646,155449.8298,-95.9556603017851,43.9202256979163,"MN","Murray County",27101,"Murray County","MN",10,0,4,0.000505,0.000505,0,0,68,0,173518,3,115,115,3771.33276978327,3.77133276978327
43,"Kas Farms",2001,750,2,48,1.360137085,1.5,0.906758056,1.5,387725.8727,233823.7835,153902.0893,-96.1139679943074,44.0123155065012,"MN","Pipestone County",27117,"Pipestone County","MN",25,0,5,0.000505,0.000505,0,0,67,0,173518,3,115,115,16998.8408186047,16.9988408186047
44,"Lakeview Ridge",2001,900,1,52,0.809538043,0.9,0.899486714,0.9,232319.9589,139513.7661,92806.19282,-96.450592,44.520393,"MN","Lincoln County",27081,"Lincoln County","MN",1,0,5,0.000505,0.000505,0,0,67,0,175847,2,345,345,11930.2373877557,11.9302373877557
45,"Metro Wind, LLC",2001,660,1,47,0.589834634,0.66,0.89368884,0.66,168442.1024,102327.3479,66114.75445,-93.560692,45.378792,"MN","Sherburne County",27141,"Sherburne County","MN",1,0,2,0.000704,0.000578,2,2814,85,0,132179,2,115,115,16716.8694168114,16.7168694168114
46,"Moulton, Chandler Hills Wind Farm Phase II",2001,660,3,47,2.014895205,1.98,1.017623841,1.98,461196.5947,320522.4496,140674.1451,-95.9510270287161,43.9006923444042,"MN","Murray County",27101,"Murray County","MN",1,0,4,0.000505,0.000505,0,0,68,0,173518,3,115,115,5398.71813476278,5.39871813476278
47,"Ruthton Wind Farm",2001,660,24,47,14.13156439,15.84,0.892144216,15.84,4118326.987,2437567.835,1680759.152,-96.2194774893097,44.2223236954035,"MN","Lincoln County",27081,"Lincoln County","MN",30,0,5,0.000505,0.000505,0,0,67,0,132492,3,115,115,3703.0818732554,3.7030818732554
48,"Wilmont Hills",2001,1500,1,72,1.264504628,1.5,0.843003085,1.5,389959.9879,228430.9937,161528.9941,-95.853493,43.754791,"MN","Nobles County",27105,"Nobles County","MN",1,0,2,0.000505,0.000505,0,0,88,0,138639,1,115,115,21870.6193406175,21.8706193406175
49,"Fenner Wind Power Project",2001,1500,19,70.5,36.58442754,28.5,1.283664124,28.5,10440520.54,5078810.007,5361710.536,-75.7577956362893,42.9862174461507,"NY","Madison County",36053,"Madison County","NY",1,0,3,0.000551,0.000551,0,0,91,0,125572,3,115,115,1327.64755462704,1.32764755462704
50,"Condon Wind Project, phase I",2001,600,41,47,7.444763976,24.6,0.302632682,24.6,6327906.21,2871537.503,3456368.707,-120.271447518175,45.2500363402298,"OR","Gilliam County",41021,"Gilliam County","OR",10,0,4,0,0.000679,1,31,67,1,203419,3,115,115,592.768490412762,0.592768490412762
51,"Klondike I",2001,1500,15,70.5,24.10153809,22.5,1.071179471,22.5,5648778.853,3716627.686,1932151.168,-120.549421168368,45.5625056178202,"OR","Sherman County",41055,"Sherman County","OR",1,0,3,0,0.000679,0,0,65,0,201398,1,115,115,4792.42506261286,4.79242506261286
52,"Stateline Wind Project",2001,660,127,47,32.0086598,83.82,0.381873775,83.82,20518299.79,10234283.87,10284015.91,-118.77131889953,45.9930315305785,"OR","Umatilla County",41059,"Umatilla County","OR",10,0,3,0.000248,0.000248,1,399,89,0,201244,4,230,115,5618.0352840435,5.6180352840435
53,"Mill Run Windpower LLC",2001,1500,9,70.5,18.08999999,13.5,1.339999999,13.5,3871205.501,2468682.576,1402522.925,-79.3909129238813,39.9203927233757,"PA","Fayette County",42051,"Fayette County","PA",10,0,5,0.002212,0.000908,0,0,87,1,124590,1,138,138,15287.0995317137,15.2870995317137
54,"Somerset",2001,1500,6,70.5,11.98031096,9,1.331145663,9,2971333.831,1645512.527,1325821.304,-79.0112822244671,39.9782855860387,"PA","Somerset County",42111,"Somerset County","PA",1,0,5,0.00074,0.00074,0,0,87,1,127773,1,115,115,21728.9396327877,21.7289396327877
55,"Chamberlain Wind Project",2001,1300,2,60,1.573520607,2.6,0.605200234,2.6,618787.3735,359916.8483,258870.5252,-99.2478410120561,43.8485430031278,"SD","Brule County",46015,"Brule County","SD",10,0,4,0.000961,0.000678,0,0,67,0,144149,4,345,230,34532.382165678,34.532382165678
56,"Desert Sky",2001,1500,76,82.5,107.5685411,114,0.943583693,114,27009421.89,17922662.5,9086759.384,-102.120547073269,30.9282948714435,"TX","Pecos County",48371,"Pecos County","TX",10,0,4,0,0,2,1222,41,0,315844,3,138,138,5046.96283549139,5.04696283549139
57,"Indian Mesa",2001,660,125,47,86.50725033,82.5,1.048572731,82.5,22748548.87,13488431.85,9260117.029,-102.197263492609,30.9446072796735,"TX","Pecos County",48371,"Pecos County","TX",10,0,4,0,0,2,1222,41,0,308054,3,138,138,1445.4602222757,1.4454602222757
58,"King Mtn. Wind Ranch",2001,1300,213,65,287.508959,276.9,1.038313322,276.9,77532280.47,45192332.96,32339947.5,-102.192069075911,31.2401750705966,"TX","Upton County",48461,"Upton County","TX",10,0,3,0,0,0,0,41,0,315842,3,138,138,5803.43879002524,5.80343879002524
59,"Llano Estacado Wind Ranch at White Deer",2001,1000,80,57,95.68109357,80,1.19601367,80,22740547.52,13824852.28,8915695.235,-101.225654189788,35.4671446379839,"TX","Carson County",48065,"Carson County","TX",10,0,3,0.000694,0.000573,0,0,78,0,302910,2,115,115,2483.09381994763,2.48309381994763
60,"Trent Mesa",2001,1500,83,82.5,127.9795429,124.5,1.027948136,124.5,34387970.31,20349643.26,14038327.05,-100.22982899233,32.4343793026254,"TX","Nolan County",48353,"Nolan County","TX",10,0,3,0,0,0,0,73,0,313413,2,138,138,16772.9030337659,16.7729030337659
61,"Woodward Mountain II",2001,660,239,47,169.751712,157.74,1.076148802,157.74,41281479.92,26112575.17,15168904.75,-102.438424482211,30.9369201078408,"TX","Pecos County",48371,"Pecos County","TX",10,0,4,0,0,2,1222,41,0,305167,2,138,138,5374.65287567866,5.37465287567866
62,"Stateline Wind Project",2001,660,267,47,226.2073718,176.22,1.283664577,176.22,55876629.44,31416637.81,24459991.63,-118.817827190203,46.0180891856772,"WA","Walla Walla County",53071,"Walla Walla County","WA",10,0,2,0,0,1,0,92,0,206072,2,230,230,2273.46364344764,2.27346364344764
63,"Montfort Wind Farm",2001,1500,20,70.5,27.59112547,30,0.919704182,30,6193093.755,4730388.404,1462705.352,-90.3800940242545,42.9579489089105,"WI","Iowa County",55049,"Iowa County","WI",1,0,3,0.000419,0.000419,0,0,82,0,143868,2,138,138,29136.1445662099,29.1361445662099
64,"Rock River I",2001,1000,49,57,14.53522532,49,0.296637251,49,9211142.326,5728670.479,3482471.847,-106.110489944401,41.7182163993844,"WY","Carbon County",56007,"Carbon County","WY",10,0,2,0.010616,0.003673,0,0,68,1,201269,4,230,230,7454.73711438858,7.45473711438858
65,"Cabazon",2002,660,62,47,14.89517105,40.92,0.364007113,40.92,11445096.77,4938092.284,6507004.491,-116.731915858657,33.9117496956133,"CA","Riverside County",6065,"Riverside County","CA",45,0,2,0.000561,0.000476,7,8846,94,0,307979,3,115,115,1889.20769559339,1.88920769559339
66,"Whitewater Hill",2002,1500,41,65,19.17190151,61.5,0.311738236,61.5,20461595.02,7217472.309,13244122.71,-116.61971353275,33.9258762430547,"CA","Riverside County",6065,"Riverside County","CA",25,0,2,0.000561,0.000476,7,8846,94,0,307141,2,115,230,1307.21377994643,1.30721377994643
67,"Eldora-New Providence Schools",2002,750,1,48,0.5877093,0.75,0.7836124,0.75,234692.5803,111079.291,123613.2893,-93.115601,42.354755,"IA","Hardin County",19083,"Hardin County","IA",1,0,5,0.000335,0.000335,1,300,77,0,130757,1,161,161,16167.4481284517,16.1674481284517
68,"Hancock County Wind Farm",2002,676,148,47,33.18384781,100.048,0.331679272,100.048,26726740.82,11929931.85,14796808.96,-93.6845480362418,43.0160292239954,"IA","Hancock County",19081,"Hancock County","IA",1,0,5,6e-04,0.00025,0,0,67,0,130508,2,161,161,9136.68378974505,9.13668378974505
69,"McNeilus",2002,900,10,52,9.001802517,9,1.00020028,9,2155457.774,1454345.212,701112.562,-92.8518130323463,43.9775823647163,"MN","Dodge County",27039,"Dodge County","MN",1,0,3,0.000127,0.000127,0,0,84,0,129302,2,161,161,15297.2574505987,15.2972574505987
70,"MinWind I & II",2002,950,4,54,3.336604862,3.8,0.878053911,3.8,949770.4097,583785.9596,365984.4501,-96.3091671103508,43.5548304519698,"MN","Rock County",27133,"Rock County","MN",1,0,5,0.000505,0.000505,0,0,69,0,132562,3,161,161,11368.4661004239,11.3684661004239
71,"Missouri River Energy Services (MRES)",2002,900,4,52,2.70965512,3.6,0.752681978,3.6,869618.2591,527550.6793,342067.5799,-95.6800560348888,43.6217917141345,"MN","Nobles County",27105,"Nobles County","MN",1,0,2,0.000505,0.000505,0,0,88,0,129805,2,161,161,20749.2816286785,20.7492816286785
72,"PrairieWinds Minot Wind 1",2002,1300,2,60,2.735371235,2.6,1.052065859,2.6,655958.9768,427618.854,228340.1228,-101.291087985394,48.0263920003931,"ND","Ward County",38101,"Ward County","ND",15,0,2,0.028596,0.002212,0,0,89,0,133975,2,115,115,10720.588475749,10.720588475749
73,"Condon Wind Project, phase II",2002,600,42,47,19.28849521,25.2,0.765416477,25.2,7606540.189,3681199.329,3925340.86,-120.272018601845,45.2936792921944,"OR","Gilliam County",41021,"Gilliam County","OR",1,0,4,0,0.000679,1,31,67,1,203419,3,115,115,5252.42701159884,5.25242701159884
74,"Stateline Wind Project",2002,660,60,47,35.07420722,39.6,0.885712304,39.6,11311794.53,6089922.748,5221871.783,-118.786793180711,45.9719868852027,"OR","Umatilla County",41059,"Umatilla County","OR",1,0,3,0.000248,0.000248,1,399,89,0,201244,4,230,115,7414.80475778278,7.41480475778279
75,"Nine Canyon",2002,1300,37,62,52.24392561,48.1,1.086152299,48.1,11829991.65,7978173.906,3851817.748,-119.095134217194,46.0950276310548,"WA","Benton County",53005,"Benton County","WA",10,0,2,0.000584,0.000671,0,0,94,1,201243,2,115,115,1663.02125324816,1.66302125324816
76,"Mountaineer Wind Energy Center (Thomas)",2002,1500,44,72,88.31529349,66,1.338110507,66,18835343.89,12011323.67,6824020.221,-79.5401807286423,39.1810365580725,"WV","Tucker County",54093,"Tucker County","WV",10,0,4,0.00663,0.003579,1,169,66,1,139271,3,138,138,5970.5319038206,5.9705319038206
77,"High Winds",2003,1800,90,80,174.5261818,162,1.07732211,162,39715361.76,26787298.01,12928063.75,-121.805905986576,38.1279302361575,"CA","Solano County",6095,"Solano County","CA",10,0,2,0.000317,0.000317,1,331,93,0,309954,4,230,230,2156.09285283607,2.15609285283607
78,"Karen Avenue Windfarm",2004,1500,3,77,3.950607236,4.5,0.877912719,4.5,1244197.373,687568.0228,556629.3502,-116.555267338661,33.9212110001369,"CA","Riverside County",6065,"Riverside County","CA",1,0,2,0.000561,0.000476,7,8846,94,0,309947,1,115,115,1205.35952310468,1.20535952310468
79,"Mountain View Power Partners III",2003,660,33,47,21.80692723,21.78,1.001236328,21.78,7281400.472,3496300.89,3785099.582,-116.591316561899,33.9137528808463,"CA","Riverside County",6065,"Riverside County","CA",1,0,2,0.000561,0.000476,7,8846,94,0,303773,1,115,115,1387.37930866864,1.38737930866864
80,"Solano Wind Project, Phase I",2003,660,15,47,3.633098741,9.9,0.366979671,9.9,2916213.627,1199214.049,1716999.577,-121.770847663344,38.127509463381,"CA","Solano County",6095,"Solano County","CA",1,0,2,0.000317,0.000317,1,331,93,0,309954,4,230,230,5209.46106871809,5.2094610687181
81,"Colorado Green Wind Project",2003,1600,108,91,37.52715976,172.8,0.217171063,172.8,42775365.13,19273323.57,23502041.56,-102.637934746995,37.7008299375061,"CO","Prowers County",8099,"Prowers County","CO",10,0,5,0.000925,0.00036,0,0,75,1,202172,2,230,230,2516.46508554854,2.51646508554854
82,"Flying Cloud",2003,1500,29,70.5,43.0003485,43.5,0.988513759,43.5,12145058.84,6965960.401,5179098.442,-95.2999235305788,43.3857395879898,"IA","Dickinson County",19059,"Dickinson County","IA",10,0,6,6e-04,0.00025,0,0,91,0,130504,2,161,161,6374.95607917676,6.37495607917676
83,"Lenox Municipal Utilities",2003,750,1,48,0.88004216,0.75,1.173389546,0.75,206858.0872,129077.1981,77780.88907,-94.538094,40.896694,"IA","Taylor County",19173,"Taylor County","IA",1,0,5,0.000167,0.000167,0,0,67,0,173497,2,161,161,11200.1452867868,11.2001452867868
84,"Chanarambie",2003,1500,57,70.5,83.45447584,85.5,0.976075741,85.5,21952141.33,13660629.31,8291512.016,-96.0352866919709,44.0097250122453,"MN","Murray County",27101,"Murray County","MN",1,0,4,0.000505,0.000505,0,0,68,0,173518,3,115,115,11481.0649732078,11.4810649732078
85,"Don Sneve Wind Farms",2003,950,1,54,0.967775398,0.95,1.018710946,0.95,247721.7337,155197.286,92524.44771,-95.843666,43.747753,"MN","Nobles County",27105,"Nobles County","MN",1,0,2,0.000505,0.000505,0,0,88,0,138639,1,115,115,22836.2515704371,22.8362515704371
86,"Farmers' coops/Westridge",2003,950,18,64,15.07705509,17.1,0.881699128,17.1,4468839.8,2641727.13,1827112.67,-96.1405238197631,44.016627984973,"MN","Pipestone County",27117,"Pipestone County","MN",10,0,5,0.000505,0.000505,0,0,67,0,173518,3,115,115,19129.4339451166,19.1294339451166
87,"G. McNeilus Wind Farm",2003,1500,9,77,12.69749619,13.5,0.940555273,13.5,3522862.345,2126012.625,1396849.72,-92.7228909600193,43.5538587162208,"MN","Mower County",27099,"Mower County","MN",10,0,3,0.000695,0.000695,0,0,90,0,130515,1,345,345,10652.4455288177,10.6524455288177
88,"McNeilus",2003,950,24,54,20.82910575,22.8,0.91355727,22.8,5825299.411,3560626.36,2264673.051,-92.8501667338031,43.9801661385618,"MN","Dodge County",27039,"Dodge County","MN",1,0,3,0.000127,0.000127,0,0,84,0,129302,2,161,161,15272.3292300226,15.2723292300226
89,"McNeilus",2003,1650,1,82,1.474914978,1.65,0.893887865,1.65,393581.8738,255825.0896,137756.7842,-92.84951,43.958355,"MN","Dodge County",27039,"Dodge County","MN",1,0,3,0.000127,0.000127,0,0,84,0,129302,2,161,161,16613.6954055317,16.6136954055317
90,"McNeilus",2003,1500,6,72,6.882723672,9,0.764747075,9,2166696.496,1321425.725,845270.7712,-92.8538633053759,43.9814835261695,"MN","Dodge County",27039,"Dodge County","MN",1,0,3,0.000127,0.000127,0,0,84,0,129302,2,161,161,14941.8801818158,14.9418801818158
91,"Missouri River Energy Services (MRES)",2003,950,2,54,1.424315223,1.9,0.749639591,1.9,460543.4605,278049.293,182494.1675,-95.677044,43.6199910118942,"MN","Nobles County",27105,"Nobles County","MN",1,0,2,0.000505,0.000505,0,0,88,0,129805,2,161,161,20630.429634011,20.630429634011
92,"Moraine Wind Power project",2003,1500,34,70.5,39.00201485,51,0.764745389,51,12277923.77,7477301.636,4800622.139,-96.0574197387263,44.0653421090959,"MN","Pipestone County",27101,"Murray County","MN",10,0,4,0.000505,0.000505,0,0,68,0,138628,3,115,115,12343.53535511,12.34353535511
93,"Pipestone School District",2003,750,1,48,0.70479148,0.75,0.939721973,0.75,195651.597,118780.995,76870.60197,-96.340393,44.000893,"MN","Pipestone County",27117,"Pipestone County","MN",1,0,5,0.000505,0.000505,0,0,67,0,138637,1,115,115,22270.3423099806,22.2703423099806
94,"Shaokatan Power Partners",2003,800,2,52,1.35117252,1.6,0.844482825,1.6,414776.601,242167.172,172609.429,-96.4182430072104,44.3978920005375,"MN","Lincoln County",27081,"Lincoln County","MN",10,0,5,0.000505,0.000505,0,0,67,0,138638,2,345,345,9255.39537602027,9.25539537602027
95,"Viking",2003,1500,8,70.5,11.96516537,12,0.997097114,12,3027165.429,1929108.017,1098057.412,-96.0081441878287,43.9721121578295,"MN","Murray County",27101,"Murray County","MN",10,0,4,0.000505,0.000505,0,0,68,0,173518,3,115,115,7416.19868899789,7.41619868899789
96,"North Dakota Wind I",2003,1500,27,70.5,37.30142487,40.5,0.921022836,40.5,10400283.16,6306157.536,4094125.625,-98.8857648741915,46.3210895642882,"ND","LaMoure County",38045,"LaMoure County","ND",30,0,6,0.000382,0.000382,0,0,54,0,135760,1,115,115,3861.32343816427,3.86132343816427
97,"North Dakota Wind II",2003,1500,14,70.5,18.86792868,21,0.898472794,21,5506846.827,3240441.114,2266405.713,-98.8844610767205,46.3196086496469,"ND","LaMoure County",38045,"LaMoure County","ND",10,0,6,0.000382,0.000382,0,0,54,0,135760,1,115,115,3994.35153177617,3.99435153177617
98,"Llano Estacado Wind Ranch at Texico II",2003,660,2,47,1.201992893,1.32,0.910600677,1.32,322232.4903,204967.7605,117264.7298,-103.055873535324,34.3574525047378,"NM","Curry County",35009,"Curry County","NM",10,0,3,0.017882,0.001407,0,0,86,0,318070,2,115,115,6610.34091124728,6.61034091124728
99,"New Mexico Wind Energy Center",2003,1500,136,87,185.7444842,204,0.910512178,204,49798462.16,31668834.73,18129627.43,-104.068131038944,34.6363797213978,"NM","De Baca County",35037,"Quay County","NM",10,0,7,0.017882,0.001407,0,0,73,0,307616,2,345,115,6196.01433066289,6.19601433066289
100,"Bowling Green Municipal",2003,1800,2,80,4.665331164,3.6,1.295925323,3.6,1158415.902,647549.581,510866.3213,-83.740997,41.375391,"OH","Wood County",39173,"Wood County","OH",1,0,3,0.000759,0.000193,0,0,93,0,153620,3,138,138,12441.5766034703,12.4415766034703
101,"Blue Canyon I",2003,1650,45,72,87.62470139,74.25,1.180130658,74.25,16837061.02,12761956.41,4075104.609,-98.5729905511441,34.8540971715735,"OK","Caddo County",40031,"Comanche County","OK",10,0,3,0.000335,0.000335,0,0,88,0,118506,2,138,138,3244.10970493671,3.24410970493671
102,"Oklahoma Wind A",2003,1500,68,82.5,113.3931683,102,1.111697729,102,22123603.63,17076128.33,5047475.292,-99.3006373048966,36.5817240589441,"OK","Harper County",40153,"Woodward County","OK",1,0,3,0.011018,0.000909,0,0,86,0,118333,2,138,138,1016.13964178485,1.01613964178485
103,"Combine Hills I",2003,1000,41,61.4,42.23652833,41,1.030159227,41,14071002.28,6664992.656,7406009.628,-118.575678607357,45.9389639384357,"OR","Umatilla County",41059,"Umatilla County","OR",1,0,3,0.000248,0.000248,1,399,89,0,202431,2,230,230,4119.65235780293,4.11965235780293
104,"Meyersdale",2003,1500,20,70.5,38.85752061,30,1.295250687,30,11619112.4,5392980.044,6226132.357,-79.0030111451322,39.7897529129475,"PA","Somerset County",42111,"Somerset County","PA",10,0,5,0.00074,0.00074,0,0,87,1,128170,2,138,138,11621.6858054536,11.6216858054536
105,"Waymart Wind Farm",2003,1500,43,70.5,92.77708506,64.5,1.43840442,64.5,19848021.55,12240127.77,7607893.782,-75.4381557370321,41.594695616358,"PA","Wayne County",42127,"Wayne County","PA",1,0,8,0.004968,0.000946,0,0,71,1,124173,2,115,115,24435.7975582778,24.4357975582778
106,"Rosebud Sioux",2003,750,1,48,0.476519675,0.75,0.635359567,0.75,171361.1271,103588.8138,67772.31332,-100.578491,43.002693,"SD","Todd County",46121,"Todd County","SD",10,1,9,0.000961,0.000678,0,0,59,0,131826,2,115,115,7478.53854901285,7.47853854901285
107,"South Dakota",2003,1500,27,70.5,24.42857555,40.5,0.603174705,40.5,9103634.24,5575563.202,3528071.039,-99.4564297850812,44.3690379023096,"SD","Hyde County",46069,"Hyde County","SD",15,0,3,0.000961,0.000678,0,0,54,0,144149,4,345,230,26726.5909712845,26.7265909712845
108,"Brazos Wind Ranch",2003,1000,160,61.4,86.7585665,160,0.542241041,160,33376250.53,21558477.63,11817772.9,-101.20363983142,32.9417295300559,"TX","Scurry County",48033,"Borden County","TX",10,0,4,0,0,0,0,50,0,313813,3,138,138,37636.4439351735,37.6364439351735
109,"Indian Mesa / Aeolus",2003,3000,1,90,2.800373146,3,0.933457715,3,768134.4376,469207.8698,298926.5678,-101.327888,36.472694,"TX","Hansford County",48195,"Hansford County","TX",1,0,4,0,0,0,0,42,0,310118,2,115,115,2835.06345897853,2.83506345897853
110,"Sweetwater",2003,1500,25,82.5,44.66390975,37.5,1.191037593,37.5,9827778.707,6494956.78,3332821.927,-100.337762879182,32.3612922570177,"TX","Nolan County",48353,"Nolan County","TX",10,0,3,0,0,0,0,73,0,313413,2,138,138,11090.7331937375,11.0907331937375
111,"Nine Canyon II",2003,1300,12,62,18.63424634,15.6,1.194502971,15.6,5095108.797,2693383.579,2401725.218,-119.150231615864,46.107375032224,"WA","Benton County",53005,"Benton County","WA",10,0,2,0.000584,0.000671,0,0,94,0,206291,1,115,115,1704.55795288836,1.70455795288836
112,"Evanston (Wyoming Wind Energy Center)",2003,1800,80,80,172.7816541,144,1.199872598,144,49638138.85,24968200.16,24669938.69,-110.783056847898,41.3589902624682,"WY","Uinta County",56041,"Uinta County","WY",10,0,3,0.011566,0.003661,0,0,81,1,202152,2,115,115,6641.66517391823,6.64166517391823
113,"Solano Wind Project, Phase IA",2004,660,8,47,5.932104229,5.28,1.123504589,5.28,1286471.549,889510.3878,396961.1613,-121.77427509801,38.1251808935917,"CA","Solano County",6095,"Solano County","CA",1,0,2,0.000317,0.000317,1,331,93,0,309954,4,230,230,4899.99250236695,4.89999250236695
114,"Lamar III",2004,1500,1,70.5,0.945197621,1.5,0.630131748,1.5,295024.9445,206240.9166,88784.02794,-102.650894,37.362293,"CO","Baca County",8009,"Baca County","CO",10,0,7,0.000925,0.00036,0,0,44,1,205665,1,115,115,3822.46081388292,3.82246081388292
115,"Lamar Municipal",2004,1500,4,70.5,4.289942347,6,0.714990391,6,1487352.453,857639.3055,629713.1473,-102.533022638599,38.032627404215,"CO","Prowers County",8099,"Prowers County","CO",10,0,5,0.000925,0.00036,0,0,75,1,204019,3,115,115,5465.75685535336,5.46575685535336
116,"Intrepid",2004,1500,107,82.5,179.5238446,160.5,1.118528627,160.5,43987590.08,26971605.06,17015985.02,-95.3205428022117,42.5217749155787,"IA","Buena Vista County",19161,"Sac County","IA",1,0,6,6e-04,0.00025,0,0,66,0,130492,3,161,161,3559.27837356087,3.55927837356087
117,"Bureau Valley School District",2004,660,1,47,0.882863842,0.66,1.337672487,0.66,184692.6157,120425.574,64267.04174,-89.678192,41.453392,"IL","Bureau County",17011,"Bureau County","IL",1,0,4,0,0,0,0,80,0,137633,3,138,138,12129.5200508229,12.1295200508229
118,"Carleton College",2004,1650,1,82,1.598984928,1.65,0.969081774,1.65,416761.5682,264010.2004,152751.3679,-93.113892,44.458992,"MN","Rice County",27131,"Rice County","MN",1,0,2,0.000695,0.000695,0,0,94,0,129411,3,115,115,19730.3628058739,19.7303628058739
119,"Farmer's",2004,950,6,54,6.232063253,5.7,1.09334443,5.7,1326592.459,951358.9236,375233.5357,-95.3762671217537,43.6513243143982,"MN","Jackson County",27063,"Jackson County","MN",1,0,5,0.000505,0.000505,0,0,68,0,129805,2,161,161,8901.71719760553,8.90171719760552
120,"JJN Wind Farm",2004,1500,1,72,1.406750892,1.5,0.937833928,1.5,347899.333,236077.4385,111821.8945,-96.391891,44.280891,"MN","Lincoln County",27081,"Lincoln County","MN",10,0,5,0.000505,0.000505,0,0,67,0,132492,3,115,115,11549.3061525766,11.5493061525766
121,"McNeilus",2004,1650,6,82,8.944895578,9.9,0.903524806,9.9,2500881.989,1535068.497,965813.4919,-92.727553844814,43.5366297546128,"MN","Mower County",27099,"Mower County","MN",1,0,3,0.000695,0.000695,0,0,90,0,130515,1,345,345,9338.67505323807,9.33867505323807
122,"MinWind III-IX",2004,1650,7,82,10.92889766,11.55,0.946224905,11.55,3006356.346,1813623.168,1192733.178,-96.3887190239662,43.6439309222731,"MN","Rock County",27133,"Rock County","MN",1,0,5,0.000505,0.000505,0,0,69,0,132561,1,161,161,642.528110299703,0.642528110299703
123,"Fairmont Wind (SMMPA)",2004,1650,2,82,2.979175957,3.3,0.902780593,3.3,789219.8949,515909.3164,273310.5785,-94.4427645795844,43.5762425107624,"MN","Martin County",27091,"Martin County","MN",1,0,3,0.000695,0.000695,1,86,68,0,138020,3,161,161,25642.4581183321,25.6424581183321
124,"West Pipestone (Maiden Winds)",2004,1650,5,82,8.977078452,8.25,1.088130721,8.25,2064854.692,1377899.814,686954.8786,-96.4359448618712,44.021360652984,"MN","Pipestone County",27117,"Pipestone County","MN",1,0,5,0.000505,0.000505,0,0,67,0,138637,1,115,115,14308.0389369597,14.3080389369597
125,"Caprock Wind Ranch",2004,1000,60,61.4,38.40600709,60,0.640100118,60,13047691.3,8445495.249,4602196.052,-103.356073988822,34.9785890281918,"NM","Quay County",35037,"Quay County","NM",10,0,7,0.017882,0.001407,0,0,73,0,305425,3,115,115,36302.3511310105,36.3023511310105
126,"AMP-Ohio/Green Mountain Energy Wind Farm",2004,1800,2,80,4.600914432,3.6,1.278031787,3.6,1177196.742,643227.198,533969.5443,-83.736298,41.3835925,"OH","Wood County",39173,"Wood County","OH",1,0,3,0.000759,0.000193,0,0,93,0,153620,3,138,138,11451.4946019623,11.4514946019623
127,"Buffalo Mountain",2004,1800,15,80,32.86351086,27,1.217167069,27,9925844.359,4697684.698,5228159.662,-84.3476352394095,36.1258808307204,"TN","Anderson County",47001,"Anderson County","TN",10,0,3,0.000648,0.000559,0,0,80,1,152123,3,161,161,679.83344654429,0.67983344654429
128,"Diablo Winds",2004,660,31,47,26.95707878,20.46,1.317550283,20.46,5662524.937,3701616.147,1960908.79,-121.63333496981,37.7643386934774,"CA","Alameda County",6001,"Alameda County","CA",20,0,1,0.000941,0.000475,2,730,93,0,318021,-999999,115,115,8640.29322372954,8.64029322372954
129,"Kumeyaay Phase I",2005,2000,25,87,65.16311692,50,1.303262338,50,14221308.26,9214206.978,5007101.283,-116.339154402172,32.7199556750606,"CA","San Diego County",6073,"San Diego County","CA",1,0,2,0.000683,0.00067,4,5387,94,0,307111,2,138,138,61032.7689114657,61.0327689114657
130,"Victorville Wind Project",2005,750,1,48,0.821286784,0.75,1.095049045,0.75,247203.8094,124970.4681,122233.3412,-117.358292,34.557693,"CA","San Bernardino County",6071,"San Bernardino County","CA",10,0,2,0.000561,0.000476,7,8792,91,0,302087,1,230,230,4171.73632848885,4.17173632848885
131,"Century",2005,1500,100,82.5,161.7700014,150,1.078466676,150,39562415.8,24816835.08,14745580.72,-93.6603728429196,42.5522991608853,"IA","Wright County",19079,"Hamilton County","IA",1,0,4,6e-04,0.00025,1,300,67,0,130706,3,161,161,2404.87284926026,2.40487284926026
132,"Century Expansion",2005,1000,35,61.4,46.89999998,35,1.339999999,35,7846088.408,6377761.008,1468327.4,-93.6668443107502,42.501946973178,"IA","Hamilton County",19079,"Hamilton County","IA",1,0,4,6e-04,0.00025,1,300,67,0,130706,3,161,161,7369.28741995439,7.36928741995439
133,"Intrepid Expansion",2005,1000,15,61.4,14.14305608,15,0.942870406,15,3773489.368,2354902.177,1418587.191,-95.3613530310569,42.548128834003,"IA","Sac County",19161,"Sac County","IA",1,0,6,6e-04,0.00025,0,0,66,0,130492,3,161,161,2854.72005954239,2.85472005954239
134,"Iowa Lakes Community College",2005,1650,1,82,1.561522008,1.65,0.946376975,1.65,412740.7045,263119.1228,149621.5817,-94.81562,43.385403,"IA","Emmet County",19063,"Emmet County","IA",10,0,5,6e-04,0.00025,0,0,76,0,129848,2,161,161,30572.2497882831,30.5722497882831
135,"Stuart",2005,660,1,47,0.644586162,0.66,0.9766457,0.66,167480.0602,105499.9375,61980.12278,-94.327393,41.493992,"IA","Adair County",19001,"Adair County","IA",1,0,7,0.000167,0.000167,0,0,56,0,131509,2,161,161,11964.1183520889,11.9641183520889
136,"Fossil Gulch",2005,1500,7,77,8.034283817,10.5,0.765169887,10.5,2923472.777,1532287.928,1391184.849,-114.949585,42.8586445,"ID","Twin Falls County",16083,"Twin Falls County","ID",10,0,3,0,0,0,0,92,0,201301,3,138,138,3632.06785679551,3.63206785679551
137,"Wolverine Creek",2005,1500,43,77,55.96157478,64.5,0.867621314,64.5,19014744.78,9815643.295,9199101.487,-111.841648011474,43.3891220722964,"ID","Bingham County",16019,"Bonneville County","ID",1,0,2,0,0,2,2,93,0,202627,2,161,161,1597.65277335631,1.59765277335631
138,"Crescent Ridge I",2005,1650,14,82,31.28502193,23.1,1.354329954,23.1,6261510.805,4219871.536,2041639.269,-89.5734564238157,41.241411159445,"IL","Bureau County",17011,"Bureau County","IL",1,0,4,0,0,0,0,80,1,137721,3,138,138,1951.45296815255,1.95145296815255
139,"Illinois Rural Electric Cooperative",2005,1650,1,82,2.165343239,1.65,1.312329236,1.65,465653.2428,301246.4649,164406.7779,-90.846191,39.618793,"IL","Pike County",17149,"Pike County","IL",1,0,5,0.000941,0.000941,1,68,66,1,122770,9,345,138,33007.7265219216,33.0077265219216
140,"Elk River",2005,1500,100,77,132.2974909,150,0.881983272,150,33384522.4,22985958.24,10398564.16,-96.5557888989025,37.5806183633827,"KS","Butler County",20015,"Butler County","KS",25,0,3,0.000428,0.000203,0,0,91,0,148857,2,345,345,3567.30912343029,3.56730912343029
141,"Arnold Wind Farm",2005,1650,1,82,1.939604314,1.65,1.175517766,1.65,408009.3109,285677.8527,122331.4582,-95.844292,43.752693,"MN","Nobles County",27105,"Nobles County","MN",1,0,2,0.000505,0.000505,0,0,88,0,138639,1,115,115,22295.4638888843,22.2954638888843
142,"Redwood Falls (SMMPA)",2005,1650,2,82,3.610301054,3.3,1.094030622,3.3,964483.1095,550073.1938,414409.9157,-95.175896,44.5030425,"MN","Redwood County",27127,"Redwood County","MN",30,0,3,0.000505,0.000505,0,0,66,0,129834,2,115,115,5713.28759671034,5.71328759671034
143,"Tholen & Petersen",2005,1650,3,82,4.685052826,4.95,0.946475318,4.95,1294121.118,782620.9824,511500.1359,-96.0979923305951,44.0764920251941,"MN","Pipestone County",27117,"Pipestone County","MN",10,0,5,0.000505,0.000505,0,0,67,0,138628,3,115,115,13755.230920654,13.755230920654
144,"Trimont Area Wind Farm",2005,1600,67,91,102.6016793,107.2,0.957105218,107.2,25607458.4,16914079.03,8693379.376,-94.8583209089914,43.7950781760197,"MN","Martin County",27063,"Jackson County","MN",1,0,5,0.000505,0.000505,0,0,68,0,138022,3,345,345,1575.03815971881,1.57503815971881
145,"University of MN -- Morris",2005,1650,1,82,1.464246415,1.65,0.88742207,1.65,431096.0144,253725.4823,177370.5321,-95.877083,45.589645,"MN","Stevens County",27149,"Stevens County","MN",10,0,4,0.000692,0.000692,0,0,81,0,135050,3,115,115,5939.28478063723,5.93928478063723
146,"Judith Gap",2005,1500,90,77,82.44694238,135,0.610718092,135,38349578,18361029.5,19988548.5,-109.746420898154,46.5724011634259,"MT","Wheatland County",30107,"Wheatland County","MT",10,1,4,0.004578,0.001052,0,0,46,0,203586,3,230,230,488.976772215797,0.488976772215797
147,"Martinsdale Wind Farm",2005,65,11,16.5,0.545761098,0.715,0.763302235,0.715,196261.2041,106409.114,89852.09011,-110.271806462818,46.4995607519021,"MT","Wheatland County",30107,"Wheatland County","MT",10,1,4,0.004578,0.001052,0,0,46,0,203586,3,230,230,40643.9991123232,40.6439991123232
148,"Two Dot Wind Farm",2005,65,7,16.5,0.271339029,0.455,0.596349514,0.455,112514.6135,62557.4544,49957.15908,-110.093007216425,46.4442245867892,"MT","Wheatland County",30107,"Wheatland County","MT",10,1,4,0.004578,0.001052,0,0,46,0,203586,3,230,230,29776.8980451526,29.7768980451526
149,"Wilton Wind Farm",2005,1500,22,77,29.35087062,33,0.889420322,33,7265168.702,5065267.443,2199901.259,-100.700126102849,47.1207162757482,"ND","Burleigh County",38015,"Burleigh County","ND",1,0,2,0.001366,0.001074,3,2187,91,0,132924,2,230,230,955.079446488593,0.955079446488593
150,"Ainsworth Wind Project (NPPD)",2005,1650,36,82,43.35229716,59.4,0.729836653,59.4,12782612.8,8530258.636,4252354.163,-99.9141469841244,42.4599992365568,"NE","Brown County",31017,"Brown County","NE",15,0,6,0,0,0,0,64,0,132430,2,115,115,2239.63978806095,2.23963978806095
151,"Jersey Atlantic Wind Farm",2005,1500,5,77,10.41386408,7.5,1.388515211,7.5,2688151.184,1396202.827,1291948.357,-74.4483406798641,39.3821090189638,"NJ","Atlantic County",34001,"Atlantic County","NJ",1,0,3,0.000439,0.000439,1,52,91,0,144076,4,138,138,18458.8681137196,18.4588681137196
152,"Caprock Wind Ranch",2005,1000,20,61.4,20.32320364,20,1.016160182,20,5202750.838,3285662.518,1917088.319,-103.357127342224,34.9807850230516,"NM","Quay County",35037,"Quay County","NM",10,0,7,0.017882,0.001407,0,0,73,0,305425,3,115,115,36088.2603027125,36.0882603027125
153,"San Juan Mesa",2005,1000,118,61.4,57.91706659,118,0.490822598,118,22088150.75,15714050.43,6374100.313,-103.821290299104,33.9505418174799,"NM","Chaves County",35041,"Roosevelt County","NM",10,0,4,0.017882,0.001407,0,0,86,0,303018,0,345,115,57914.0775460113,57.9140775460113
154,"Maple Ridge (Lowville)",2005,1650,83,82,168.8019605,136.95,1.232580946,136.95,53021379.19,24046620.76,28974758.43,-75.6247375266328,43.805757731255,"NY","Lewis County",36049,"Lewis County","NY",1,0,5,0.000717,0.000717,0,0,66,0,125628,2,230,230,8474.1458659224,8.4741458659224
155,"Blue Canyon II",2005,1800,83,80,169.7082656,149.4,1.135932166,149.4,37597958.79,25267867.28,12330091.51,-98.6407316014081,34.8772200124604,"OK","Kiowa County",40075,"Kiowa County","OK",10,0,5,0.010798,0.000855,0,0,64,0,118506,2,138,138,3461.81119162699,3.46181119162699
156,"Weatherford",2005,1600,71,91,17.06609103,113.6,0.150229675,106.9167559,20581446,12192137.8,8389308.2,-98.756360908856,35.5260522919085,"OK","Custer County",40039,"Custer County","OK",1,0,6,0.010798,0.000855,0,0,87,0,118505,2,138,138,4493.70670605974,4.49370670605974
157,"Weatherford Expansion",2005,1600,27,91,43.78265115,43.2,1.013487295,43.2,11818260.24,6976147.354,4842112.887,-98.6753191018046,35.4701514308309,"OK","Custer County",40039,"Custer County","OK",1,0,6,0.010798,0.000855,0,0,87,0,168534,3,138,138,3723.52996819051,3.72352996819051
158,"Klondike II",2005,1600,50,91,82.88812255,80,1.036101532,80,26681878.26,13019129.69,13662748.57,-120.580167652697,45.5833276930196,"OR","Sherman County",41055,"Sherman County","OR",1,0,3,0,0.000679,0,0,65,0,201398,1,115,115,1737.07245318177,1.73707245318177
159,"American Windmill Museum",2005,660,1,47,0.663201047,0.66,1.004850072,0.66,176948.763,106519.7994,70428.9636,-101.823891,33.580894,"TX","Lubbock County",48303,"Lubbock County","TX",1,0,3,0.000849,0.000519,0,0,90,0,310943,2,115,115,9252.6033086607,9.2526033086607
160,"Buffalo Gap Wind Farm",2005,1800,64,80,34.17914917,115.2,0.296694003,115.2,24803740.34,13521447.87,11282292.47,-100.113619532586,32.3086928322329,"TX","Taylor County",48441,"Taylor County","TX",10,0,3,0.001725,0.000784,0,0,88,0,310877,3,138,138,13094.8956582833,13.0948956582833
161,"Callahan Divide",2005,1500,76,87,146.7164792,114,1.28698666,114,28106160.73,20360076.83,7746083.896,-100.002338030356,32.3234384647022,"TX","Taylor County",48441,"Taylor County","TX",10,0,3,0.001725,0.000784,0,0,88,0,310877,3,138,138,3607.24160473327,3.60724160473328
162,"Horse Hollow Wind Energy Center",2005,1500,140,87,223.0294126,210,1.062044822,210,55381608.05,34672886.74,20708721.31,-100.050344617789,32.226104778729,"TX","Taylor County",48441,"Taylor County","TX",10,0,3,0.001725,0.000784,0,0,88,0,310877,3,138,138,10911.1075761802,10.9111075761802
163,"Sweetwater Phase II",2005,1620,61,91,105.3244296,98.82,1.065820984,98.82,25950750.14,16349104.9,9601645.242,-100.375704426508,32.3358627774082,"TX","Nolan County",48353,"Nolan County","TX",10,0,3,0,0,0,0,73,0,313413,2,138,138,12115.4277066984,12.1154277066984
164,"Sweetwater Phase III",2005,1500,89,77,144.4082999,133.5,1.081710111,133.5,35293534.66,22239108.28,13054426.38,-100.427691725419,32.3171747773387,"TX","Nolan County",48353,"Nolan County","TX",10,0,3,0,0,0,0,73,0,313413,2,138,138,13925.0523586397,13.9250523586397
165,"Camp Williams",2000,225,2,30,0.538812455,0.45,1.197361011,0.45,157881.8551,77775.63478,80106.22031,-111.91966999978,40.4396400006519,"UT","Utah County",49049,"Utah County","UT",10,0,2,0.000508,0.000508,0,0,96,0,201627,5,138,115,1741.83464000307,1.74183464000307
166,"Hopkins Ridge Wind Project",2005,1800,83,80,186.1829196,149.4,1.246204281,149.4,51353018.14,26282996.1,25070022.04,-117.824047190085,46.432080569769,"WA","Columbia County",53013,"Columbia County","WA",1,0,4,0,0,0,0,80,0,201420,2,115,115,2125.86011482008,2.12586011482008
167,"F.E. Warren Air Force Base",2005,660,2,47,NA,NA,NA,NA,NA,NA,NA,-104.881038477635,41.1752435164355,"WY","Laramie County",56021,"Laramie County","WY",10,0,2,0.001988,0,0,0,94,0,204226,3,230,115,9129.45473183952,9.12945473183952
168,"Buena Vista",2006,1000,37,61.4,24.49103429,37,0.661919846,37,8854385.879,5167991.082,3686394.797,-121.658767846251,37.8015460359543,"CA","Contra Costa County",6013,"Contra Costa County","CA",35,0,1,0.000941,0.000475,1,730,94,0,304473,2,230,230,6177.97533503599,6.17797533503599
169,"Shiloh Wind Project",2006,1500,106,77,133.081847,159,0.836992748,159,40709280.82,23902907.13,16806373.69,-121.848976948104,38.1410750174951,"CA","Solano County",6095,"Solano County","CA",10,0,2,0.000317,0.000317,1,331,93,0,309954,4,230,230,2454.54108226881,2.45454108226881
170,"Solano Phase IIA",2006,3000,8,90,29.00335658,24,1.208473191,24,7592276.442,4172036.583,3420239.859,-121.774736063604,38.10175417801,"CA","Solano County",6095,"Solano County","CA",1,0,2,0.000317,0.000317,1,331,93,0,309954,4,230,230,5487.27700884403,5.48727700884403
171,"Spring Canyon",2006,1500,40,77,49.60270635,60,0.826711773,60,14170352.59,8975469.879,5194882.706,-103.018809258562,40.9640514720369,"CO","Logan County",8075,"Logan County","CO",10,0,6,0.000925,0.00036,0,0,89,0,201533,4,230,115,1249.33257709299,1.24933257709299
172,"Victory(Carroll)",2006,1600,66,87,100.8363278,105.6,0.954889468,105.6,29299734.57,16651229.61,12648504.97,-95.11816670455,42.1307367201836,"IA","Crawford County",19047,"Crawford County","IA",1,0,5,0.000167,0.000167,0,0,66,0,130995,3,161,161,2069.83778574644,2.06983778574644
173,"Spearville",2006,1500,66,77,99.42974987,99,1.004340908,99,22660157.85,15906726.44,6753431.41,-99.7576357994088,37.8741202957246,"KS","Ford County",20057,"Ford County","KS",25,0,4,0.002347,0.000546,0,0,87,0,117996,2,230,230,791.999675104935,0.791999675104935
174,"Hull Wind Phase II",2006,1800,1,80,2.550025102,1.8,1.416680612,1.8,649695.3827,336440.6289,313254.7539,-70.856598,42.261192,"MA","Plymouth County",25023,"Plymouth County","MA",45,0,3,0.000447,0.000471,0,0,92,0,136294,2,115,115,6007.78446027871,6.00778446027871
175,"Massachusetts Maritime Academy",2006,660,1,47,0.892449284,0.66,1.352195885,0.66,259552.5023,120615.8154,138936.6869,-70.623802,41.74139,"MA","Barnstable County",25001,"Barnstable County","MA",30,0,4,9.8e-05,9.8e-05,0,0,92,0,135426,1,115,115,4490.68086577696,4.49068086577696
176,"Mars Hill",2006,1500,7,77,13.16755458,10.5,1.254052817,10.5,3361092.564,1970846.526,1390246.038,-67.8075459550256,46.5624190488103,"ME","Aroostook County",23003,"Aroostook County","ME",1,0,6,0.000342,0.001076,0,0,76,0,136691,1,345,345,140946.981197411,140.946981197411
177,"Bingham Lake",2006,1250,12,64,7.327418395,15,0.48849456,15,3197827.287,1949425.218,1248402.068,-95.0457316516031,43.9616343705757,"MN","Cottonwood County",27033,"Cottonwood County","MN",1,0,3,0.000505,0.000505,0,0,68,0,158246,1,161,161,20240.0024219807,20.2400024219807
178,"Blue Breezes I & II",2006,1250,2,64,0,2.5,0,2.16294999,484121.0855,250770.8997,233350.1858,-94.1549985,43.655834008403,"MN","Faribault County",27043,"Faribault County","MN",1,0,6,0.000695,0.000695,0,0,68,0,132584,2,345,345,41758.8071468972,41.7588071468972
179,"Norgaard (7 Projects)",2006,1250,5,64,5.268317026,6.25,0.842930724,6.25,1595768.21,946634.0668,649134.1431,-96.377938973074,44.3021985110496,"MN","Lincoln County",27081,"Lincoln County","MN",10,0,5,0.000505,0.000505,0,0,67,0,132492,3,115,115,11766.5944495168,11.7665944495168
180,"East Ridge",2006,1250,8,64,7.863432227,10,0.786343223,10,2361829.768,1470151.468,891678.2997,-95.9178273500377,43.940746970052,"MN","Murray County",27101,"Murray County","MN",10,0,4,0.000505,0.000505,0,0,68,0,138639,1,115,115,648.411557584065,0.648411557584065
181,"Minnesota Wind Share",2006,1800,3,88,4.969865324,5.4,0.92034543,5.4,1419202.611,841012.3423,578190.2689,-95.9804912800466,43.9590593647594,"MN","Murray County",27101,"Murray County","MN",10,0,4,0.000505,0.000505,0,0,68,0,173518,3,115,115,4818.89343203862,4.81889343203862
182,"Mower County",2006,2300,43,108,92.04770471,98.9,0.930714911,98.9,25133355.22,15554023.71,9579331.518,-92.5977519289871,43.6079074861305,"MN","Mower County",27099,"Mower County","MN",1,0,3,0.000695,0.000695,0,0,90,0,130515,1,345,345,15620.1792936396,15.6201792936396
183,"St. Olaf College",2006,1650,1,82,1.430348069,1.65,0.866877618,1.65,426883.599,252978.4234,173905.1756,-93.192368,44.462383,"MN","Rice County",27131,"Rice County","MN",1,0,2,0.000695,0.000695,0,0,94,0,129411,3,115,115,16191.1918302614,16.1911918302614
184,"Wolf",2006,1250,2,64,1.969496087,2.5,0.787798435,2.5,607617.0938,373703.7343,233913.3595,-95.778991519914,43.5821935043536,"MN","Nobles County",27105,"Nobles County","MN",1,0,2,0.000505,0.000505,0,0,88,0,129805,2,161,161,29868.1111954418,29.8681111954418
185,"Horseshoe Bend/ranch pit",2006,1500,6,77,6.551158668,9,0.727906519,9,2347762.736,1296524.9,1051237.836,-111.437780382642,47.5001372706951,"MT","Cascade County",30013,"Cascade County","MT",1,0,3,0,0,0,0,89,0,205592,1,115,115,9277.54045973577,9.27754045973577
186,"Oliver I",2006,2300,22,108,50.12978864,50.6,0.990707285,50.6,13023102.16,8124709.116,4898393.048,-101.218716663177,47.1649727069494,"ND","Oliver County",38065,"Oliver County","ND",10,0,4,0.001366,0.001074,0,0,76,1,134968,5,345,230,9979.77547774919,9.97977547774919
187,"Velva Wind Farm",2006,660,17,47,11.83476155,11.22,1.054791582,11.22,2642546.414,1839458.005,803088.4091,-100.90036192415,48.0959288090169,"ND","McHenry County",38049,"McHenry County","ND",10,0,3,0.028596,0.002212,0,0,75,0,134402,3,115,115,2172.55455470325,2.17255455470325
188,"Wilton Wind Farm",2006,1500,11,77,9.9982598,16.5,0.605955139,16.5,3913160.471,2241858.605,1671301.866,-100.676056041041,47.1174880969212,"ND","Burleigh County",38015,"Burleigh County","ND",10,0,2,0.001366,0.001074,3,2187,91,0,132924,2,230,230,2466.66724270238,2.46666724270238
189,"Maple Ridge",2006,1650,112,82,257.8933453,184.8,1.39552676,184.8,61963331.77,34243364.1,27719967.66,-75.5723997898689,43.7552113476786,"NY","Lewis County",36049,"Lewis County","NY",1,0,5,0.000717,0.000717,0,0,66,0,125628,2,230,230,2469.94127831974,2.46994127831974
190,"Centennial Wind Farm",2006,1500,40,77,58.58889464,60,0.976481577,60,14688348.44,9545437.824,5142910.612,-99.6315022733706,36.6477240620838,"OK","Harper County",40059,"Harper County","OK",25,0,5,0.011018,0.000909,0,0,46,0,118330,2,138,138,2768.74076135829,2.76874076135829
191,"Spearville",2006,1500,68,77,42.53064715,102,0.416967129,102,26892418.16,12698110.16,14194308.01,-112.834699275127,43.4772290740959,"KS","Ford County",16023,"Butte County","ID",10,0,5,0,0,0,0,77,0,205293,2,115,115,8029.1117987087,8.0291117987087
192,"Bear Creek",2006,2000,12,87,31.67887304,24,1.319953043,24,9086498.868,4360205.141,4726293.726,-75.7496491291977,41.2380343776769,"PA","Luzerne County",42079,"Luzerne County","PA",10,0,3,0.000471,0.000327,0,0,90,1,171815,3,230,230,16084.5788460942,16.0845788460942
193,"Locust Ridge II",2009,2000,13,83,35.9391456,26,1.382274831,26,7696161.643,4851779.67,2844381.973,-76.2135764277572,40.8333914404366,"PA","Schuylkill County",42107,"Schuylkill County","PA",10,0,6,0.00074,0.00074,0,0,89,1,123610,5,500,230,28757.8508890757,28.7578508890757
194,"Portsmouth Abbey School",2006,660,1,47,0.919007766,0.66,1.392436009,0.66,216791.5016,122099.4374,94692.06416,-71.2687,41.599091,"RI","Newport County",44005,"Newport County","RI",1,0,3,4e-04,0.000452,0,0,92,0,136650,4,115,115,1154.23000230546,1.15423000230546
195,"Forest Creek Wind Project",2006,2300,54,93,0,124.2,0,107.4553555,19190883.93,12166707.04,7024176.892,-101.21536269702,32.0360834971573,"TX","Sterling County",48431,"Sterling County","TX",10,0,4,0.002854,0.000951,1,637,43,0,310670,3,138,138,8376.72780706627,8.37672780706627
196,"Horse Hollow Expansion",2005,1500,2,87,0,3,0,2.595539988,443519.077,293785.7354,149733.3416,-100.024704002093,32.2431985046186,"TX","Taylor County",48441,"Taylor County","TX",10,0,3,0.001725,0.000784,0,0,88,0,310877,3,138,138,7921.36303498888,7.92136303498888
197,"Horse Hollow II",2006,2300,130,108,347.6368357,299,1.162665002,299,78176489.75,51273237.93,26903251.82,-100.07102982174,32.2321865111677,"TX","Taylor County",48441,"Taylor County","TX",10,0,3,0.001725,0.000784,0,0,88,0,310877,3,138,138,11825.7241797244,11.8257241797244
198,"Horse Hollow III",2006,1500,149,87,239.109944,223.5,1.06984315,223.5,58499720.69,37220222.12,21279498.57,-100.270192756892,32.2766136036909,"TX","Nolan County",48353,"Nolan County","TX",10,0,3,0,0,0,0,73,0,313413,2,138,138,22428.6656910405,22.4286656910405
199,"JD Wind Phase V",2006,1250,8,64,11.27087395,10,1.127087395,10,2730679.548,1691719.656,1038959.892,-101.866790999996,36.4454958076164,"TX","Sherman County",48421,"Sherman County","TX",1,0,4,0,0,0,0,40,0,310319,3,230,115,10802.3331821908,10.8023331821908
200,"Red Canyon Wind Energy",2006,1500,56,77,93.69192162,84,1.115380019,84,22153085.49,14347823.32,7805262.169,-101.22474498591,32.9542427850861,"TX","Garza County",48033,"Borden County","TX",10,0,4,0,0,0,0,50,0,313813,3,138,138,39937.3713494216,39.9373713494216
201,"Big Horn",2006,1500,133,77,247.4051432,199.5,1.240126031,199.5,64393207.38,35144324.92,29248882.47,-120.280707191033,45.881894836676,"WA","Klickitat County",53039,"Klickitat County","WA",1,0,4,0.000251,0.000608,0,0,71,1,201228,2,230,230,9739.09697842397,9.73909697842397
202,"Wild Horse I",2006,1800,127,80,292.7461092,228.6,1.280604152,228.6,76137995.63,40707159.79,35430835.84,-120.193517296449,47.0226243201194,"WA","Kittitas County",53037,"Kittitas County","WA",25,0,3,0.000251,0.000608,2,4966,95,0,202003,2,230,115,2056.7342950376,2.0567342950376
203,"Solano Wind Project",2007,3000,21,90,63.65641275,63,1.01041925,63,16543788.31,10172830.22,6370958.083,-121.768809477246,38.1018894750843,"CA","Solano County",6095,"Solano County","CA",1,0,2,0.000317,0.000317,1,331,93,0,309954,4,230,230,5946.09040558857,5.94609040558857
204,"Cedar Creek",2007,1000,274,61.4,58.81985809,274,0.214671015,274,48642666.42,30585886.81,18056779.61,-104.015307412824,40.8953354966015,"CO","Weld County",8123,"Weld County","CO",35,0,2,0.012439,0.002143,0,0,93,0,202601,5,230,115,5572.16999018196,5.57216999018196
205,"Peetz Table",2007,1600,267,91,301.0828036,427.2,0.704781844,427.2,105377200.7,60819096.9,44558103.84,-103.301153300423,40.9596807701197,"CO","Logan County",8075,"Logan County","CO",15,0,6,0.000925,0.00036,0,0,89,0,205891,1,115,115,6277.61741716821,6.27761741716821
206,"Twin Buttes",2007,1500,50,77,40.29410722,75,0.537254763,75,13652015.9,9870840.195,3781175.702,-102.85647177274,37.6726185663087,"CO","Bent County",8011,"Bent County","CO",10,1,6,0.000925,0.00036,0,0,55,1,201396,2,230,230,2980.81722053185,2.98081722053185
207,"Century Expansion",2007,1500,2,77,3.331097981,3,1.110365994,3,781848.7008,502261.392,279587.3088,-93.610676,42.5687290150087,"IA","Wright County",19197,"Wright County","IA",1,0,4,6e-04,0.00025,0,0,66,0,130706,3,161,161,2133.27396500143,2.13327396500143
208,"Cross Winds",2007,2100,10,88,24.36949846,21,1.160452308,21,5869279.391,3631299.568,2237979.823,-94.9017132313935,43.0632111109897,"IA","Clay County",19147,"Palo Alto County","IA",1,0,5,6e-04,0.00025,0,0,67,0,143932,4,161,161,31202.7791151711,31.2027791151711
209,"Endeavor",2007,2500,10,116,22.77444313,25,0.910977725,25,6182760.128,3902105.087,2280655.041,-95.4388256825029,43.4496224730682,"IA","Osceola County",19143,"Osceola County","IA",1,0,7,6e-04,0.00025,0,0,56,0,137995,3,161,161,16230.2228953017,16.2302228953017
210,"Hardin-Hilltop",2007,2100,7,88,14.08369382,14.7,0.958074409,14.7,3709893.642,2333550.634,1376343.008,-94.348279689025,42.0859718813258,"IA","Greene County",19073,"Greene County","IA",1,0,3,0.000167,0.000167,1,300,67,0,131091,3,161,161,12691.8772754637,12.6918772754637
211,"Pomeroy I",2007,1500,82,91.5,118.4077827,123,0.9626649,123,31315985.27,19471885.29,11844099.98,-94.7414885703126,42.5984185896342,"IA","Pocahontas County",19151,"Pocahontas County","IA",1,0,5,6e-04,0.00025,0,0,64,0,130434,3,161,161,3781.63898230963,3.78163898230963
212,"Pomeroy II",2007,1620,49,91.5,77.34829232,79.38,0.974405295,79.38,19847646.36,12625921.82,7221724.533,-94.7375324109657,42.5989878760747,"IA","Pocahontas County",19151,"Pocahontas County","IA",1,0,5,6e-04,0.00025,0,0,64,0,130434,3,161,161,3950.47436054565,3.95047436054565
213,"Camp Grove",2007,1500,100,77,181.5421678,150,1.210281118,150,44735707.8,26266649.4,18469058.41,-89.624810248392,41.0797488875568,"IL","Stark County",17123,"Marshall County","IL",1,0,4,0.000222,0.000222,0,0,78,1,137721,3,138,138,19793.6937806844,19.7936937806844
214,"GSG Wind Farm",2007,2000,40,87,96.99361146,80,1.212420143,80,26220507.7,13945327.98,12275179.72,-89.1536364148407,41.6410669110634,"IL","LaSalle County",17103,"Lee County","IL",1,0,3,0,0,2,4187,89,0,160098,2,138,138,8373.92285341077,8.37392285341077
215,"Sustainable Technologies Museum (Turbine A",2007,2500,1,96,3.135978188,2.5,1.254391275,2.5,758837.0845,443885.0902,314951.9943,-89.249695,41.660294,"IL","Lee County",17103,"Lee County","IL",1,0,3,0,0,2,4187,89,0,160098,2,138,138,15877.2703644645,15.8772703644645
216,"Twin Groves I",2007,1650,121,82,255.7724723,199.65,1.281104294,199.65,54197052.67,35672140.48,18524912.19,-88.6978456418604,40.4481686605219,"IL","McLean County",17113,"McLean County","IL",15,0,2,0.000119,0.000119,0,0,95,0,122084,1,345,345,9074.95220516666,9.07495220516666
217,"Twin Groves II",2007,1650,95,82,196.0802064,156.75,1.250910407,156.75,43648455.26,27624076.78,16024378.48,-88.5704180321404,40.4525114774508,"IL","McLean County",17113,"McLean County","IL",25,0,2,0.000119,0.000119,0,0,95,0,122084,1,345,345,2271.89774336943,2.27189774336943
218,"Jiminy Peak Ski Resort",2007,1500,1,77,2.061641971,1.5,1.37442798,1.5,481980.8919,276733.5638,205247.3281,-73.292801,42.543793,"MA","Berkshire County",25003,"Berkshire County","MA",30,0,5,0,0,0,0,90,0,133469,3,115,115,8747.38010138354,8.74738010138354
219,"Mars Hill",2007,1500,20,77,41.46662103,30,1.382220701,30,9629251.01,5864891.424,3764359.585,-67.812312948329,46.5364408938242,"ME","Aroostook County",23003,"Aroostook County","ME",1,0,6,0.000342,0.001076,0,0,76,0,136691,1,345,345,138155.594158583,138.155594158583
220,"Fenton",2007,1500,137,77,111.0954862,205.5,0.540610638,205.5,45841811.35,27185029.76,18656781.59,-95.9525711694989,43.8694929763031,"MN","Murray County",27101,"Murray County","MN",1,0,4,0.000505,0.000505,0,0,68,0,173518,3,115,115,8712.95249406562,8.71295249406562
221,"Minn-Dakota",2007,1500,64,77,0,96,0,83.05727962,19827239.54,9427892.187,10399347.36,-96.3901290151154,44.2903483111798,"MN","Lincoln County",27081,"Lincoln County","MN",1,0,5,0.000505,0.000505,0,0,67,0,132492,3,115,115,11883.1504655612,11.8831504655612
222,"Prairie Star",2007,1650,60,82,93.13664949,99,0.940774237,99,25875069.69,15595761.68,10279308.01,-92.6063435205274,43.6531970021445,"MN","Mower County",27099,"Mower County","MN",1,0,3,0.000695,0.000695,0,0,90,0,158243,1,161,161,11105.4193395486,11.1054193395486
223,"Wing River Wind",2007,2500,1,90,2.301231193,2.5,0.920492477,2.5,657071.3092,390140.9629,266930.3463,-95.116104,46.343666,"MN","Todd County",27153,"Todd County","MN",1,0,4,0.000692,0.000692,0,0,68,0,136200,4,230,115,8560.51231791518,8.56051231791518
224,"Bluegrass Ridge",2007,2100,27,88,43.52781346,56.7,0.767686304,56.7,13172785.41,8273703.441,4899081.969,-94.4919185959058,40.0875099580296,"MO","Gentry County",29075,"Gentry County","MO",1,0,4,0.000533,0.000408,0,0,46,0,117078,3,161,161,1552.80301149266,1.55280301149266
225,"Langdon",2007,1620,82,91,126.9235438,132.84,0.955461787,132.84,32197877.36,20942795.64,11255081.71,-98.3000744126347,48.627030248367,"ND","Cavalier County",38019,"Cavalier County","ND",1,0,2,0.000382,0.000382,0,0,62,1,134083,1,115,115,1286.96807111971,1.28696807111971
226,"Oliver II",2007,1600,32,91,57.36580242,51.2,1.120425829,51.2,13289320.35,8634214.485,4655105.866,-101.201657950503,47.1602917483124,"ND","Oliver County",38065,"Oliver County","ND",10,0,4,0.001366,0.001074,0,0,76,1,134968,5,345,230,9351.54193651735,9.35154193651735
227,"Munnsville",2007,1500,23,77,44.84846849,34.5,1.299955608,34.5,12298693.08,6205896.712,6092796.369,-75.5556769856155,42.9289650200403,"NY","Oneida County",36053,"Madison County","NY",1,0,3,0.000551,0.000551,0,0,91,0,124526,2,115,115,9413.80590216519,9.41380590216519
228,"Steel Winds",2007,2500,8,93,24.05652189,20,1.202826094,20,6641682.03,3462812.256,3178869.774,-78.8679597346048,42.8183243618448,"NY","Erie County",36029,"Erie County","NY",10,0,2,0.000464,0.000446,0,0,90,0,124943,4,115,115,1295.78902967721,1.29578902967721
229,"Centennial Wind Farm",2007,1500,40,77,0,60,0,51.91079976,9248458.891,5844651.455,3403807.436,-99.6089577915105,36.6395460382033,"OK","Harper County",40059,"Harper County","OK",25,0,5,0.011018,0.000909,0,0,46,0,118330,2,138,138,560.034948197936,0.560034948197936
230,"Sleeping Bear",2007,2100,45,88,30.38154709,94.5,0.321497853,94.5,15389012.35,11141670.25,4247342.102,-99.4994581941628,36.6392681314462,"OK","Harper County",40059,"Harper County","OK",25,0,5,0.011018,0.000909,0,0,46,0,118332,1,138,138,483.28400793988,0.48328400793988
231,"Biglow Canyon I",2007,1650,76,82,143.8610235,125.4,1.147217093,125.4,40571020.96,21348624.39,19222396.57,-120.615522088382,45.6674540524536,"OR","Sherman County",41055,"Sherman County","OR",10,0,3,0,0.000679,0,0,65,0,202156,1,115,115,8490.58715315704,8.49058715315704
232,"Elkhorn Valley (La Grande)",2007,1650,60,82,112.7920621,99,1.139313759,99,32131065.75,16764492.59,15366573.16,-117.807582103175,45.0812921357433,"OR","Union County",41061,"Union County","OR",10,0,3,0.000248,0.000248,0,0,91,0,209811,1,115,115,3432.88528724065,3.43288528724065
233,"Klondike III",2007,1500,124,77,63.04028421,186,0.338926259,186,44540293.27,22163544.8,22376748.46,-120.57098427244,45.5785948235584,"OR","Sherman County",41055,"Sherman County","OR",1,0,3,0,0.000679,0,0,65,0,201398,1,115,115,2531.6476093406,2.5316476093406
234,"Allegheny Ridge",2007,2000,40,87,94.87945233,80,1.185993154,80,25899992.71,13769130.14,12130862.57,-78.5806649086017,40.3924956088421,"PA","Cambria County",42021,"Cambria County","PA",10,0,5,0.000759,0.000759,0,0,88,1,123838,4,230,230,1631.58977265245,1.63158977265245
235,"Casselman",2007,1500,23,77,37.64016765,34.5,1.091019352,34.5,11783266.61,5786845.502,5996421.111,-79.1268165680966,39.8606954881611,"PA","Somerset County",42111,"Somerset County","PA",10,0,5,0.00074,0.00074,0,0,87,1,124532,2,115,115,20897.5665359299,20.8975665359299
236,"Minn-Dakota",2007,1500,36,77,22.41718108,54,0.415132983,54,13642143.7,6714377.537,6927766.162,-96.4766694636011,44.3338709162548,"SD","Brookings County",46011,"Brookings County","SD",1,0,4,0.000206,0.000206,0,0,92,0,131159,7,345,115,7584.65842429107,7.58465842429107
237,"Buffalo Gap 2",2007,1500,155,77,69.27269869,232.5,0.297947091,232.5,45243814.11,27465381.28,17778432.83,-100.211597527004,32.343523711898,"TX","Nolan County",48353,"Nolan County","TX",10,0,3,0,0,0,0,73,0,313413,2,138,138,21442.2050748193,21.4422050748193
238,"Camp Springs",2007,1500,87,77,91.95426727,130.5,0.7046304,130.5,30540279.05,18668567.31,11871711.75,-100.799008420581,32.7696592867538,"TX","Scurry County",48415,"Scurry County","TX",1,0,4,0,0,0,0,84,0,312254,3,138,138,14849.9265258593,14.8499265258593
239,"Camp Springs II",2007,1500,19,77,31.02707881,28.5,1.088669432,28.5,7522179.476,4754470.255,2767709.221,-100.858725849213,32.7650584236643,"TX","Scurry County",48415,"Scurry County","TX",1,0,4,0,0,0,0,84,0,312254,3,138,138,11498.7357325075,11.4987357325075
240,"Capricorn Ridge",2007,2300,210,108,557.2812616,483,1.153791432,483,125963592.7,82377399.45,43586193.21,-100.902858609638,31.9321344630451,"TX","Sterling County",48431,"Sterling County","TX",10,0,4,0.002854,0.000951,1,637,43,0,305506,1,138,138,7233.82525903599,7.23382525903599
241,"JD Wind VI",2007,1250,8,64,12.25277657,10,1.225277657,10,2696510.061,1754616.467,941893.5943,-101.815029806152,36.4669936187346,"TX","Sherman County",48421,"Sherman County","TX",1,0,4,0,0,0,0,40,0,310319,3,230,115,12558.1831150276,12.5581831150276
242,"Lone Star I",2007,2000,100,83,231.2828763,200,1.156414382,200,51797784.85,34431464.3,17366320.55,-99.5017713703666,32.6099577098945,"TX","Shackelford County",48417,"Shackelford County","TX",1,0,4,0,0,0,0,43,0,302508,3,138,138,24942.1527704573,24.9421527704573
243,"Lone Star II",2007,2000,24,87,53.48521457,48,1.114275304,48,12962020.34,8116257.977,4845762.368,-99.5131499182614,32.5401074675164,"TX","Shackelford County",48417,"Shackelford County","TX",1,0,4,0,0,0,0,43,0,302508,3,138,138,19644.9589678249,19.6449589678249
244,"Sand Bluff",2007,2000,45,87,100.9948941,90,1.12216549,90,22977860.22,15211915.47,7765944.752,-101.304830664479,31.9736501367781,"TX","Glasscock County",48173,"Glasscock County","TX",10,0,3,0,0,0,0,64,0,310670,3,138,138,12739.1287256177,12.7391287256177
245,"Snyder",2007,3000,21,90,69.42459879,63,1.101977759,63,16110436.37,10592955.35,5517481.022,-100.736312046079,32.7397292547006,"TX","Scurry County",48415,"Scurry County","TX",1,0,4,0,0,0,0,84,0,312254,3,138,138,17471.1998769256,17.4711998769256
246,"Sweetwater IVa",2007,1000,135,61.4,163.0924535,135,1.208092248,135,34910890.26,23574590.38,11336299.88,-100.463188650335,32.3097436101126,"TX","Nolan County",48353,"Nolan County","TX",10,0,3,0,0,0,0,73,0,313413,2,138,138,15520.4098437982,15.5204098437982
247,"Sweetwater IVb",2007,2300,46,93,124.1342377,105.8,1.173291472,105.8,27208603.85,18293647.93,8914955.918,-100.494338762344,32.2652854295792,"TX","Nolan County",48353,"Nolan County","TX",10,0,3,0,0,0,0,73,0,313413,2,138,138,21177.2878770277,21.1772878770277
248,"Sweetwater V",2007,2300,35,93,92.54796718,80.5,1.149664189,80.5,21105003.87,13820403.91,7284599.956,-100.478857158012,32.2309785983454,"TX","Nolan County",48353,"Nolan County","TX",10,0,3,0,0,0,0,73,0,313413,2,138,138,24293.7663063276,24.2937663063276
249,"Whirlwind Energy Center",2007,2300,26,93,72.62384163,59.8,1.214445512,59.8,16655350.14,10439731.28,6215618.861,-101.096453423849,34.1172919525089,"TX","Floyd County",48153,"Floyd County","TX",10,0,4,0,0,0,0,41,0,308765,2,345,345,10023.0142128086,10.0230142128086
250,"Wildorado",2007,2300,69,93,195.0272386,158.7,1.228905095,158.7,43321718.55,27877065.13,15444653.43,-102.300762387545,35.2868280217144,"TX","Oldham County",48359,"Oldham County","TX",10,0,3,0.000694,0.000573,0,0,56,0,306983,2,345,345,12191.0048832992,12.1910048832992
251,"Marengo Wind Power Project",2007,2000,78,100,189.5511591,156,1.215071533,156,53073731.3,27141349.88,25932381.43,-117.765189353323,46.393449234164,"WA","Columbia County",53013,"Columbia County","WA",1,0,4,0,0,0,0,80,0,206290,3,115,115,2228.32305478549,2.22832305478549
252,"White Creek",2007,2300,87,93,245.3509773,200.1,1.226141815,200.1,69382181.08,35037608.17,34344572.91,-120.346829516975,45.8153332154187,"WA","Klickitat County",53039,"Klickitat County","WA",10,0,4,0.000251,0.000608,0,0,71,1,201228,2,230,230,7449.82589982071,7.44982589982071
253,"Alite Wind Farm",2008,3000,8,90,14.99245956,24,0.624685815,24,5631868.551,3326027.729,2305840.822,-118.341775814226,35.0346691123781,"CA","Kern County",6029,"Kern County","CA",10,0,3,0.006322,0.001217,16,21867,89,0,306225,4,500,220,21432.0852934034,21.4320852934034
254,"Dillon",2008,1000,45,61.4,34.56884133,45,0.768196474,45,12549583.65,6568433.536,5981150.111,-116.568803139925,33.9341162695413,"CA","Riverside County",6065,"Riverside County","CA",1,0,2,0.000561,0.000476,7,8846,94,0,303773,1,115,115,1707.2665727162,1.7072665727162
255,"Wray School District",2008,900,1,54,0.587805972,0.9,0.653117747,0.9,233564.4421,125026.5881,108537.854,-102.223289,40.050995,"CO","Yuma County",8125,"Yuma County","CO",10,0,5,0.000925,0.00036,0,0,68,0,203973,1,115,115,3644.17623689653,3.64417623689653
256,"Adair",2008,2300,75,93,74.63245567,172.5,0.432651917,172.5,43811538.01,21543064.18,22268473.82,-94.667942786058,41.4593580787544,"IA","Adair County",19001,"Adair County","IA",1,0,7,0.000167,0.000167,0,0,56,0,131508,3,161,161,822.089593633429,0.822089593633429
257,"Carroll",2008,1500,100,91.5,182.6179698,150,1.217453132,150,37943522.42,26287306.6,11656215.82,-94.9443982086882,42.1518337786409,"IA","Carroll County",19027,"Carroll County","IA",1,0,5,0.000167,0.000167,0,0,68,0,130995,3,161,161,15964.5173575261,15.9645173575261
258,"Century Expansion",2008,1500,8,77,11.68826792,12,0.974022327,12,3069038.545,1905182.767,1163855.778,-93.6292857958519,42.5608855838278,"IA","Wright County",19197,"Wright County","IA",1,0,4,6e-04,0.00025,0,0,66,0,130706,3,161,161,659.670398080841,0.659670398080841
259,"Charles City",2008,1500,50,91.5,72.7373945,75,0.969831927,75,19329940.25,11916110.97,7413829.288,-92.728717515849,43.0310407134839,"IA","Floyd County",19067,"Floyd County","IA",1,0,4,0.000335,0.000335,0,0,66,0,130588,3,161,161,5316.84542637719,5.31684542637719
260,"Crystal Lake I",2008,1500,100,91,135.7658491,150,0.905105661,150,37485671.35,23451961.65,14033709.7,-93.8499800774642,43.1956298151937,"IA","Hancock County",19081,"Hancock County","IA",10,0,5,6e-04,0.00025,0,0,67,0,130508,2,161,161,23978.0267349527,23.9780267349527
261,"Crystal Lake II",2008,2500,77,96,189.6582503,192.5,0.985237664,192.5,46567702.41,31149879.36,15417823.05,-93.7857363124002,43.3060438106759,"IA","Winnebago County",19189,"Winnebago County","IA",10,0,5,6e-04,0.00025,0,0,78,0,130508,2,161,161,29571.4574344717,29.5714574344717
262,"Endeavor",2008,2500,30,116,66.80798834,75,0.890773178,75,18666533.25,11612830.3,7053702.95,-95.4424871942833,43.4435135220435,"IA","Osceola County",19143,"Osceola County","IA",1,0,7,6e-04,0.00025,0,0,56,0,137995,3,161,161,16456.4239820144,16.4564239820144
263,"Endeavor II",2008,2500,20,116,41.72041171,50,0.834408234,50,12456959.79,7571522.101,4885437.689,-95.4615504707666,43.4333896639091,"IA","Osceola County",19143,"Osceola County","IA",1,0,7,6e-04,0.00025,0,0,56,0,137995,3,161,161,17948.4700432495,17.9484700432495
264,"Pioneer Prairie I",2008,1650,124,82,200.2136419,204.6,0.9785613,204.6,52186434.35,32575094.02,19611340.33,-92.6191211340301,43.4709257521417,"IA","Howard County",19131,"Mitchell County","IA",10,0,4,0.000335,0.000335,0,0,67,0,130515,1,345,345,2679.33387351471,2.67933387351471
265,"Pioneer Prairie II",2008,1650,16,82,25.83401831,26.4,0.9785613,26.4,6733829.294,4198028.153,2535801.142,-92.6550411424105,43.4722279093068,"IA","Howard County",19131,"Mitchell County","IA",10,0,4,0.000335,0.000335,0,0,67,0,130515,1,345,345,251.701874522924,0.251701874522924
266,"Pomeroy III",2008,1620,40,91.5,56.89271346,64.8,0.877973973,64.8,15611516.43,9920788.353,5690728.078,-94.7792468324841,42.6065675514756,"IA","Pocahontas County",19151,"Pocahontas County","IA",1,0,5,6e-04,0.00025,0,0,64,0,130434,3,161,161,4918.73041205038,4.91873041205038
267,"Story County",2008,1500,100,87,130.5463838,150,0.870309226,150,36111176.06,22854893.33,13256282.73,-93.2791101929348,42.102669584725,"IA","Story County",19169,"Story County","IA",1,0,1,0.000404,0.000404,1,300,96,0,132036,1,161,161,1808.86823605072,1.80886823605072
268,"Top of Iowa II",2008,2000,39,87,72.59737668,78,0.930735598,78,19701885.47,12181653,7520232.468,-93.3167975463514,43.3533809550012,"IA","Worth County",19195,"Worth County","IA",1,0,5,0.000335,0.000335,0,0,77,0,133291,2,161,161,2131.72689447442,2.13172689447442
269,"Top of Iowa III",2008,1650,18,82,26.57018197,29.7,0.894618921,29.7,7377089.651,4567164.55,2809925.101,-93.2864511367919,43.3586192330895,"IA","Worth County",19195,"Worth County","IA",1,0,5,0.000335,0.000335,0,0,77,0,133291,2,161,161,440.698585965985,0.440698585965985
270,"Walnut Wind Project",2008,1620,102,91.5,142.2072311,165.24,0.86061021,165.24,40662767.82,25411743.69,15251024.13,-95.2322434432311,41.4613775021381,"IA","Pottawattamie County",19155,"Pottawattamie County","IA",1,0,3,0.000539,0.000607,0,0,90,0,132969,3,161,161,26758.1029160149,26.7581029160149
271,"Wind Vision",2008,900,1,54,0.778778043,0.9,0.865308937,0.9,219377.9567,138023.4152,81354.54144,-92.888794,43.348091,"IA","Mitchell County",19131,"Mitchell County","IA",1,0,4,0.000335,0.000335,0,0,67,0,130512,2,161,161,17880.183768395,17.880183768395
272,"Winnebago I",2008,2000,10,83,19.9848325,20,0.999241625,20,5238023.094,3254883.423,1983139.672,-93.7712277284817,43.3179626097684,"IA","Winnebago County",19189,"Winnebago County","IA",1,0,5,6e-04,0.00025,0,0,78,0,130508,2,161,161,30185.7329778985,30.1857329778985
273,"Agriwind",2008,2100,4,88,10.3728892,8.4,1.234867762,8.4,2394848.591,1473260.508,921588.0839,-89.6190503760483,41.3006700373735,"IL","Bureau County",17011,"Bureau County","IL",1,0,4,0,0,0,0,80,1,137717,3,138,138,4268.58723499843,4.26858723499843
274,"Grand Ridge",2008,1500,66,77,114.2723552,99,1.154266214,99,32394460.32,16885956.27,15508504.06,-88.6970951041851,41.2306022561851,"IL","LaSalle County",17099,"LaSalle County","IL",1,0,3,0,0,2,4187,89,0,138200,3,138,138,7010.79795236778,7.01079795236778
275,"Providence Heights",2008,2000,36,87,93.02308461,72,1.291987286,72,20445056.81,12876990.85,7568065.967,-89.590729938337,41.2303426936021,"IL","Bureau County",17011,"Bureau County","IL",1,0,4,0,0,0,0,80,1,137721,3,138,138,2830.73665375969,2.83073665375969
276,"Twin Groves II",2008,1650,23,82,48.76532476,37.95,1.284988795,37.95,10449410.95,6775054.099,3674356.849,-88.5948534966099,40.4253275275621,"IL","McLean County",17113,"McLean County","IL",15,0,2,0.000119,0.000119,0,0,95,0,122084,1,345,345,4267.91611066819,4.26791611066819
277,"Goodland I",2008,1500,87,77,161.5826506,130.5,1.238181231,130.5,40503581.48,22966772.22,17536809.25,-87.4752151197715,40.6872365020943,"IN","Benton County",18007,"Benton County","IN",1,0,5,0,0,0,0,77,0,153342,2,138,138,9127.83952999087,9.12783952999087
278,"Meridian Way",2008,3000,35,90,98.01432244,105,0.933469738,105,22660360.06,16408784.07,6251575.993,-97.5469897623161,39.4166396696345,"KS","Cloud County",20029,"Cloud County","KS",10,0,5,0.002347,0.000546,0,0,77,0,117981,3,345,230,1245.1616082531,1.2451616082531
279,"Meridian Way II",2008,3000,32,90,119.8210701,96,1.248136147,96,23281812.6,16891116.16,6390696.439,-97.7462858565475,39.4239698500727,"KS","Cloud County",20029,"Cloud County","KS",1,0,5,0.002347,0.000546,0,0,77,0,117980,1,230,230,951.270893525586,0.951270893525586
280,"Smoky Hills I",2008,2000,56,100,124.8778875,112,1.114981139,112,30136287.88,18885329.77,11250958.11,-98.1107774502909,38.8866693755463,"KS","Lincoln County",20105,"Lincoln County","KS",10,0,5,0.002347,0.000546,0,0,55,0,118147,2,230,230,13323.3465503885,13.3233465503885
281,"Smoky Hills II",2008,1600,99,91,175.7246329,158.4,1.109372683,158.4,42314805.08,26517194.32,15797610.76,-98.2370382758589,38.8888873702577,"KS","Lincoln County",20105,"Lincoln County","KS",10,0,5,0.002347,0.000546,0,0,55,0,118147,2,230,230,2726.82673487786,2.72682673487786
282,"Forbes Park",2008,600,1,47,0.846367123,0.6,1.410611871,0.6,225527.1168,111654.658,113872.4587,-71.013298,42.39959,"MA","Suffolk County",25025,"Suffolk County","MA",1,0,3,0.000447,0.000471,0,0,91,0,136244,2,115,115,589.530033728164,0.589530033728164
283,"Holy Name Catholic High School",2008,600,1,47,0.846441929,0.6,1.410736548,0.6,229523.3246,111678.0378,117845.2868,-71.783897,42.240891,"MA","Worcester County",25027,"Worcester County","MA",1,0,4,0.000563,0.000563,0,0,93,0,136375,1,115,115,972.866057868226,0.972866057868226
284,"Patriot",2008,1500,3,77,5.870929826,4.5,1.304651072,4.5,1292497.687,813327.4947,479170.1927,-69.3352610996122,44.4951603576327,"ME","Waldo County",23027,"Waldo County","ME",1,0,5,0.001018,0.001194,0,0,81,0,136774,7,345,115,16357.3041395665,16.3573041395665
285,"Harvest Wind Farm",2008,1650,32,82,66.23905917,52.8,1.254527636,52.8,13832455.28,9315741.036,4516714.248,-83.2071683784962,43.8397552438329,"MI","Huron County",26063,"Huron County","MI",1,0,5,0.000794,0.000416,3,7874,66,0,128371,2,120,120,1999.87035185015,1.99987035185015
286,"Michigan Wind I",2008,1500,46,77,82.89956891,69,1.201443028,69,20628927.73,11945584.45,8683343.28,-82.9391595364232,43.7176836487032,"MI","Huron County",26063,"Huron County","MI",1,0,5,0.000794,0.000416,3,7874,66,1,128838,4,120,120,2161.62072275627,2.16162072275627
287,"Stoney Corners",2008,2500,2,90,6.54207011,5,1.308414022,5,1558826.04,903342.19,655483.85,-85.3090934889849,44.1897410806268,"MI","Missaukee County",26113,"Missaukee County","MI",1,0,7,0.000801,0.000249,1,278,78,0,145744,2,138,138,12585.8939389279,12.5858939389279
288,"Cisco",2008,2100,4,88,8.209155536,8.4,0.977280421,8.4,2032520.949,1342861.83,689659.1188,-95.364522483829,43.6258191658555,"MN","Jackson County",27063,"Jackson County","MN",1,0,5,0.000505,0.000505,0,0,68,0,129805,2,161,161,11673.5316658488,11.6735316658488
289,"Corn Plus",2008,2100,2,88,4.551490832,4.2,1.083688293,4.2,1077061.722,706575.1508,370486.5715,-94.1415214998508,43.7619970217073,"MN","Faribault County",27043,"Faribault County","MN",1,0,6,0.000695,0.000695,0,0,68,0,132584,2,345,345,32663.8065132514,32.6638065132514
290,"Elm Creek",2008,1500,66,77,89.8218681,99,0.907291597,99,25158409.66,15372551.71,9785857.946,-94.9346476180267,43.7549847358867,"MN","Jackson County",27063,"Jackson County","MN",1,0,5,0.000505,0.000505,0,0,68,0,138022,3,345,345,9154.95967139721,9.15495967139721
291,"Ewington",2008,2100,10,88,17.27827297,21,0.822774903,21,5069757.825,3153039.635,1916718.191,-95.4094752914181,43.6143788958675,"MN","Jackson County",27063,"Jackson County","MN",1,0,5,0.000505,0.000505,0,0,68,0,129805,2,161,161,11091.1947251069,11.0911947251069
292,"Federated Rural Electric",2008,2100,1,88,1.802589099,2.1,0.858375762,2.1,521748.5354,320060.5322,201688.0032,-94.591995,43.676792,"MN","Martin County",27091,"Martin County","MN",1,0,3,0.000695,0.000695,1,86,68,0,138020,3,161,161,11538.1461442208,11.5381461442208
293,"Grand Meadow",2008,1500,67,77,91.04623539,100.5,0.90593269,100.5,25660561.25,15560011.32,10100549.93,-92.6647170532824,43.7007493760342,"MN","Mower County",27099,"Mower County","MN",1,0,3,0.000695,0.000695,0,0,90,0,158243,1,161,161,4637.19021374304,4.63719021374304
294,"Jeffers",2008,2100,20,110,34.87175292,42,0.830279831,42,10212224.16,6383189.874,3829034.288,-95.2572577317223,44.0553893891357,"MN","Cottonwood County",27033,"Cottonwood County","MN",10,0,3,0.000505,0.000505,0,0,68,0,170860,1,161,161,27897.1097865136,27.8971097865136
295,"Marshall",2008,2100,9,88,14.57466397,18.9,0.771146242,18.9,4593907.184,2784059.814,1809847.37,-95.8144815624551,44.3285622629929,"MN","Lyon County",27083,"Lyon County","MN",1,0,4,0.000505,0.000505,0,0,90,0,132582,3,115,115,15914.5562302811,15.9145562302811
296,"Nobles Cooperative Electric",2008,2100,1,88,1.738082946,2.1,0.827658546,2.1,534716.3148,314329.9244,220386.3904,-95.437294,43.718594,"MN","Jackson County",27063,"Jackson County","MN",1,0,5,0.000505,0.000505,0,0,68,0,129805,2,161,161,1624.30709402294,1.62430709402294
297,"Odin",2008,2000,10,88,16.60446182,20,0.830223091,20,4957043.237,3004809.839,1952233.398,-94.859693027268,43.8624520373251,"MN","Cottonwood County",27033,"Cottonwood County","MN",1,0,3,0.000505,0.000505,0,0,68,0,138023,3,345,345,6533.06079117333,6.53306079117333
298,"Prairie Star",2008,1650,1,82,1.460238643,1.65,0.884993117,1.65,415050.3257,254285.6453,160764.6804,-92.634995,43.637291,"MN","Mower County",27099,"Mower County","MN",1,0,3,0.000695,0.000695,0,0,90,0,158243,1,161,161,11986.2233760979,11.9862233760979
299,"Taconite Ridge Energy Center",2008,2500,10,96,20.78380229,25,0.831352092,25,6170828.206,3746620.212,2424207.994,-92.6002557598189,47.5736324405928,"MN","St. Louis County",27137,"St. Louis County","MN",10,0,2,0.000398,0.000504,1,38,92,0,129377,7,230,115,1042.03030072186,1.04203030072186
300,"Wapsipinicon Wind",2008,1500,67,77,77.98241059,100.5,0.775944384,100.5,24538227.07,14727780.36,9810446.714,-92.6761334163154,43.7676654414618,"MN","Mower County",27099,"Mower County","MN",1,0,3,0.000695,0.000695,0,0,90,0,158243,1,161,161,2874.09347786846,2.87409347786846
301,"Conception Wind Project",2008,2100,24,88,42.62094263,50.4,0.845653624,50.4,11541628.82,7646268.934,3895359.887,-94.6721519669088,40.2179006873491,"MO","Nodaway County",29147,"Nodaway County","MO",1,0,3,0.000533,0.000408,0,0,92,0,117369,3,161,161,12747.9590770821,12.7479590770821
302,"Cow Branch Wind Project",2008,2100,24,88,39.44784669,50.4,0.782695371,50.4,11841087.37,7527450.53,4313636.84,-95.4664492157443,40.4517479787958,"MO","Atchison County",29005,"Atchison County","MO",1,0,4,0.000533,0.000408,0,0,65,0,148599,3,345,345,32231.8644255313,32.2318644255313
303,"Loess Hills Wind Project",2008,1250,4,64,5.388077665,5,1.077615533,5,1209617.747,838449.6922,371168.0543,-95.5383910965134,40.4121257158119,"MO","Atchison County",29005,"Atchison County","MO",15,0,4,0.000533,0.000408,0,0,65,0,148599,3,345,345,30670.0523993134,30.6700523993134
304,"Diamond Willow Wind",2008,1500,12,77,20.35775839,18,1.130986577,18,4705224.044,3057430.697,1647793.347,-104.18069991992,46.2760360328702,"MT","Fallon County",30025,"Fallon County","MT",25,0,3,0.004578,0.001052,0,0,67,0,134870,1,115,115,16229.8289439126,16.2298289439126
305,"Glacier I",2008,1500,71,77,115.5613929,106.5,1.085083502,106.5,30764953.19,17656090.25,13108862.94,-112.128613623522,48.5188961608535,"MT","Toole County",30101,"Toole County","MT",1,0,1,0.004578,0.001052,0,0,66,0,204627,2,115,115,1483.32908648939,1.48332908648939
306,"Ashtabula Wind Center",2008,1500,131,77,170.109275,196.5,0.865696056,196.5,50303446.13,30054703.62,20248742.51,-97.9165351053243,47.1160479359794,"ND","Barnes County",38003,"Barnes County","ND",10,0,4,0.000382,0.000382,0,0,76,0,133388,3,230,230,12548.122491937,12.548122491937
307,"Langdon - OTP",2008,1500,27,77,32.59950496,40.5,0.804926049,40.5,9500247.832,6025589.26,3474658.572,-98.2463715276184,48.7161432289299,"ND","Cavalier County",38019,"Cavalier County","ND",1,0,2,0.000382,0.000382,0,0,62,1,134096,3,115,115,8047.97442912283,8.04797442912283
308,"Langdon II",2008,1620,24,91,37.62655472,38.88,0.967761181,38.88,9990955.61,6162205.55,3828750.061,-98.2895300832035,48.6238584688993,"ND","Cavalier County",38019,"Cavalier County","ND",1,0,2,0.000382,0.000382,0,0,62,1,134083,1,115,115,2131.86347078049,2.13186347078049
309,"Tatanka",2008,1500,61,82,82.45382758,91.5,0.901134728,91.5,24130655.24,14145726.62,9984928.627,-98.9468864622086,45.961824555293,"ND","Dickey County",38021,"Dickey County","ND",10,0,5,0.000382,0.000382,0,0,75,0,131108,1,230,230,5528.89507605105,5.52889507605105
310,"Turtle Mountain College",2008,660,1,47,0.618680069,0.66,0.937394044,0.66,173876.2538,103671.3223,70204.93145,-99.751793,48.884693,"ND","Rolette County",38079,"Rolette County","ND",10,1,7,0.000382,0.000382,0,0,54,0,134121,1,115,115,8108.99767710361,8.10899767710361
311,"Lempster",2008,2000,12,87,32.83258052,24,1.368024188,24,9235505.235,4444645.27,4790859.965,-72.1456352809818,43.2329939400661,"NH","Sullivan County",33019,"Sullivan County","NH",10,0,5,0.000633,0.000809,0,0,91,0,133395,2,115,115,22345.7774383621,22.3457774383621
312,"Mesalands",2008,1500,1,77,1.697175358,1.5,1.131450239,1.5,371265.1919,253430.0386,117835.1533,-103.738991,35.169693,"NM","Quay County",35037,"Quay County","NM",15,0,7,0.017882,0.001407,0,0,73,0,305425,3,115,115,4753.17822403257,4.75317822403257
313,"Noble Bliss",2008,1500,67,77,116.4331767,100.5,1.158539072,100.5,33108885.34,17145666.49,15963218.85,-78.2580549071465,42.5440418245092,"NY","Wyoming County",36121,"Wyoming County","NY",1,0,4,0.001117,0.001024,0,0,68,0,124223,2,115,115,4192.96508302303,4.19296508302303
314,"Noble Clinton",2008,1500,67,77,134.6699999,100.5,1.339999999,100.5,33290393.05,18280963.57,15009429.49,-73.9903168218397,44.9221400679845,"NY","Clinton County",36019,"Clinton County","NY",1,0,4,0.000717,0.000717,0,0,89,0,135973,3,230,230,3412.94465123806,3.41294465123806
315,"Noble Ellenburg",2008,1500,54,77,108.6536973,81,1.34140367,81,26719807.61,14734367.34,11985440.27,-73.972370501869,44.871310300805,"NY","Clinton County",36019,"Clinton County","NY",1,0,4,0.000717,0.000717,0,0,89,0,135979,2,230,230,2401.26667661363,2.40126667661363
316,"Buffalo Bear",2008,2100,9,88,0,18.9,0,16.35190192,3209252.666,1861303.794,1347948.871,-99.6554116922138,36.7737900137968,"OK","Harper County",40059,"Harper County","OK",1,0,5,0.011018,0.000909,0,0,46,0,118330,2,138,138,15785.7901158284,15.7857901158284
317,"Red Hills",2008,1500,82,77,0,123,0,106.4171395,22498300.64,11992100.65,10506199.99,-99.4013503263962,35.5400742449322,"OK","Roger Mills County",40129,"Roger Mills County","OK",10,0,4,0.010798,0.000855,0,0,55,0,118685,2,138,138,1781.36148194609,1.78136148194609
318,"Elkhorn Valley (08)",2008,1650,1,82,1.975224901,1.65,1.197106001,1.65,508424.4075,285822.2207,222602.1868,-117.789085,45.109394,"OR","Union County",41061,"Union County","OR",10,0,3,0.000248,0.000248,0,0,91,0,209811,1,115,115,6746.2926634613,6.7462926634613
319,"Klondike IIIA",2008,1500,52,77,91.33064493,78,1.170905704,78,25402475.34,13367509.48,12034965.87,-120.559017123582,45.5619619455828,"OR","Sherman County",41055,"Sherman County","OR",1,0,3,0,0.000679,0,0,65,0,201398,1,115,115,4199.10007171453,4.19910007171453
320,"Rattlesnake Road",2008,2100,47,88,52.46734885,98.7,0.531584082,98.7,26042618.73,12964553.52,13078065.21,-120.244539070352,45.6863784736731,"OR","Gilliam County",41021,"Gilliam County","OR",10,0,4,0,0.000679,1,31,67,1,209088,2,115,115,4173.12368813897,4.17312368813896
321,"Forward",2008,2100,14,88,31.84885029,29.4,1.083294228,29.4,10006180.98,4875724.01,5130456.968,-78.8612474177119,40.0989533770134,"PA","Somerset County",42111,"Somerset County","PA",1,0,5,0.00074,0.00074,0,0,87,1,127773,1,115,115,3551.01549498779,3.55101549498779
322,"Lookout",2008,2100,18,88,45.01100805,37.8,1.190767409,37.8,12361759.17,6551235.672,5810523.497,-78.9374064216425,39.8606334161802,"PA","Somerset County",42111,"Somerset County","PA",10,0,5,0.00074,0.00074,0,0,87,1,128170,2,138,138,12704.4737464593,12.7044737464593
323,"Tatanka",2008,1500,59,82,50.29000846,88.5,0.568248683,88.5,21311204.43,11821679.69,9489524.743,-99.0211061487837,45.9103099666828,"SD","McPherson County",46089,"McPherson County","SD",35,0,5,0.000206,0.000206,0,0,62,0,131108,1,230,230,3310.55514129424,3.31055514129424
324,"Buffalo Gap 3",2008,2300,74,93,45.80059332,170.2,0.269098668,170.2,31041061.5,19744290.16,11296771.34,-100.160928837629,32.2970307561224,"TX","Nolan County",48353,"Nolan County","TX",30,0,3,0,0,0,0,73,0,310877,3,138,138,17526.7354673226,17.5267354673226
325,"Bull Creek",2008,1000,180,61.4,159.0248426,180,0.883471348,180,44183582.01,28031645.75,16151936.26,-101.578957063326,32.9316761747131,"TX","Borden County",48033,"Borden County","TX",10,0,4,0,0,0,0,50,0,314214,3,138,138,33072.895128284,33.0728951282841
326,"Camp Springs II",2008,1500,61,77,95.3982748,91.5,1.042604096,91.5,24163823.35,14998745.77,9165077.574,-100.79483546801,32.7135410600174,"TX","Scurry County",48415,"Scurry County","TX",10,0,4,0,0,0,0,84,0,312254,3,138,138,11265.0424062943,11.2650424062943
327,"Capricorn Ridge expansion",2008,1500,197,91,363.070172,295.5,1.228663865,295.5,75610007.95,51921072.01,23688935.94,-100.963760954155,31.9334775222653,"TX","Sterling County",48431,"Sterling County","TX",10,0,4,0.002854,0.000951,1,637,43,0,305506,1,138,138,12954.2494342717,12.9542494342717
328,"Champion",2008,2300,55,93,144.8074524,126.5,1.144722944,126.5,33160730.64,21630402.72,11530327.92,-100.608771288616,32.3943067516719,"TX","Mitchell County",48353,"Nolan County","TX",1,0,3,0,0,0,0,73,0,313413,2,138,138,19602.168777314,19.602168777314
329,"Elbow Creek Wind Farm",2008,2300,53,108,142.8033257,121.9,1.171479292,121.9,31398019.5,21005083.97,10392935.53,-101.41333059273,32.1661782595804,"TX","Howard County",48227,"Howard County","TX",10,0,4,0,0,0,0,84,0,310670,3,138,138,15268.5336634934,15.2685336634934
330,"Goat Phase I",2008,1000,80,61.4,95.14032415,80,1.189254052,80,20649918.01,13785263.28,6864654.725,-100.810967717496,31.9453344850469,"TX","Coke County",48081,"Coke County","TX",10,0,6,0.002854,0.000951,0,0,44,0,305506,1,138,138,1601.13220434471,1.60113220434471
331,"Hackberry",2008,2300,71,93,195.1829782,163.3,1.195241752,163.3,43044096.58,28742960.25,14301136.33,-99.4554381800432,32.7824056083481,"TX","Shackelford County",48417,"Shackelford County","TX",10,0,4,0,0,0,0,43,0,302508,3,138,138,42474.8471104331,42.4748471104331
332,"JD Wind 10",2008,1250,8,64,11.97457806,10,1.197457806,10,2760444.989,1731472.053,1028972.936,-101.8022915,35.9613952271722,"TX","Moore County",48341,"Moore County","TX",1,0,3,0,0,0,0,75,0,307040,10,230,115,5511.11290260039,5.51111290260039
333,"JD Wind 4",2008,2100,38,88,94.26579929,79.8,1.18127568,79.8,21512806.47,13709386.84,7803419.635,-101.375346558646,36.393028983736,"TX","Hansford County",48195,"Hansford County","TX",1,0,4,0,0,0,0,42,0,300441,3,115,115,1361.27233265592,1.36127233265592
334,"JD WInd 9",2008,1250,6,64,9.144512588,7.5,1.219268345,7.5,2005631.905,1316682.393,688949.5119,-101.995025683595,35.8100266998143,"TX","Moore County",48341,"Moore County","TX",10,0,3,0,0,0,0,75,0,301324,3,115,115,18367.1109208348,18.3671109208348
335,"Lone Star II",2008,2000,76,87,163.9297979,152,1.078485512,152,40262958.85,25359705.6,14903253.25,-99.5085433370018,32.5296742083308,"TX","Shackelford County",48417,"Shackelford County","TX",1,0,4,0,0,0,0,43,0,302508,3,138,138,19546.4044508169,19.5464044508169
336,"McAdoo",2008,1500,100,77,177.082914,150,1.18055276,150,39069035.95,26195180.31,12873855.63,-100.988428945444,33.767735716003,"TX","Dickens County",48125,"Dickens County","TX",10,0,6,0,0,0,0,45,0,308765,2,345,345,36826.7848667811,36.8267848667811
337,"Ocotillo",2008,2100,28,88,64.42483245,58.8,1.095660416,58.8,15066925.06,9839716.023,5227209.038,-101.396305440468,32.1423560852837,"TX","Howard County",48227,"Howard County","TX",10,0,4,0,0,0,0,84,0,310670,3,138,138,12494.4263066786,12.4944263066786
338,"Panther Creek I",2008,1620,95,87,169.2297544,153.9,1.09960854,153.9,41258301.04,25731439.78,15526861.26,-101.427388669956,32.0455576393676,"TX","Glasscock County",48173,"Glasscock County","TX",1,0,3,0,0,0,0,64,0,310808,3,138,138,7654.53071009803,7.65453071009803
339,"Roscoe",2008,1000,209,61.4,248.5765764,209,1.18936161,209,55267618.59,36398228.48,18869390.11,-100.661983823387,32.4730183547757,"TX","Scurry County",48335,"Mitchell County","TX",1,0,5,0,0,0,0,42,0,313413,2,138,138,24133.9901981135,24.1339901981135
340,"Sherbino I",2008,3000,50,90,181.1241768,150,1.207494512,150,39162894.75,26231711.54,12931183.21,-102.360656074082,30.8185692736515,"TX","Pecos County",48371,"Pecos County","TX",10,0,4,0,0,2,1222,41,0,305167,2,138,138,19074.4019165979,19.0744019165979
341,"Silver Star I",2008,2000,24,110,57.43076992,48,1.196474373,48,12455343.62,8407893.19,4047450.431,-98.4676284572687,32.3312473598632,"TX","Eastland County",48143,"Erath County","TX",10,0,4,0.004818,0.001241,1,5985,91,0,310834,3,138,138,31084.0112132676,31.0840112132676
342,"Stanton Energy Center",2008,1500,80,77,115.9427817,120,0.966189847,120,33630538.29,19318432.91,14312105.37,-101.808699414407,32.2078056751855,"TX","Martin County",48317,"Martin County","TX",10,0,3,0.03554,0.003055,0,0,54,0,312256,1,138,138,34022.5450044646,34.0225450044646
343,"Texas Tech - Nolan",2008,2000,1,80,2.188828581,2,1.094414291,2,489443.5943,334942.5239,154501.0704,-100.526093,32.350197,"TX","Nolan County",48353,"Nolan County","TX",10,0,3,0,0,0,0,73,0,313413,2,138,138,15042.8966079253,15.0428966079253
344,"Turkey Track",2008,1500,113,77,217.0168601,169.5,1.280335458,169.5,43141058.03,30433475.5,12707582.54,-100.2385241449,32.204228498236,"TX","Nolan County",48353,"Nolan County","TX",10,0,3,0,0,0,0,73,0,310891,3,138,138,20432.8914784505,20.4328914784505
345,"Wege Wind Farm",2008,1250,8,64,12.11717446,10,1.211717446,10,2765245.168,1745670.732,1019574.436,-101.535589479693,35.3455347583176,"TX","Carson County",48065,"Carson County","TX",1,0,3,0.000694,0.000573,0,0,78,0,305125,3,115,115,11996.346743258,11.996346743258
346,"Wolf Ridge",2008,1600,75,91,139.5159392,120,1.162632827,120,31007168.2,20648834.24,10358333.96,-97.4048493530222,33.7308773211152,"TX","Cooke County",48097,"Cooke County","TX",10,0,3,0.004818,0.001241,0,0,86,0,303826,1,138,138,19123.5146893196,19.1235146893196
347,"Spanish Fork",2008,2100,9,88,22.54406266,18.9,1.192807548,18.9,6419959.376,3264489.728,3155469.648,-111.5839051962,40.0733315839417,"UT","Utah County",49049,"Utah County","UT",10,0,2,0.000508,0.000508,0,0,96,1,205508,3,115,115,3890.18953850723,3.89018953850723
348,"Goodnoe Hills",2008,2200,47,110,125.3708251,103.4,1.212483802,103.4,33524376.43,17959816.21,15564560.22,-120.523804534994,45.7812625797557,"WA","Klickitat County",53039,"Klickitat County","WA",10,0,4,0.000251,0.000608,0,0,71,1,200498,7,500,115,648.772032952213,0.648772032952213
349,"Hopkins Ridge II",2008,1800,4,80,9.005487878,7.2,1.250762205,7.2,1592039.427,1268267.714,323771.7135,-117.805850737631,46.4327258097056,"WA","Columbia County",53013,"Columbia County","WA",10,0,4,0,0,0,0,80,0,201420,2,115,115,1378.99298047077,1.37899298047077
350,"Marengo II",2008,2000,39,100,45.89987862,78,0.588459982,78,17447243.06,10507534.02,6939709.032,-117.852415655401,46.3598988219,"WA","Columbia County",53013,"Columbia County","WA",1,0,4,0,0,0,0,80,0,202087,1,115,115,1691.60284259076,1.69160284259076
351,"Nine Canyon III",2008,2300,14,93,17.48319468,32.2,0.542956357,32.2,7377372.406,4247633.021,3129739.385,-119.122308340964,46.1037991427366,"WA","Benton County",53005,"Benton County","WA",10,0,2,0.000584,0.000671,0,0,94,0,201243,2,115,115,2315.69515030875,2.31569515030875
352,"Blue Sky - Green Field",2008,1650,88,82,194.5679999,145.2,1.339999999,145.2,39385006.94,26377284.53,13007722.41,-88.268925128814,43.8865947580793,"WI","Fond du Lac County",55039,"Fond du Lac County","WI",1,0,3,0,0.00058,0,0,93,0,144347,3,345,345,480.258556561609,0.480258556561609
353,"Cedar Ridge Wind Farm",2008,1650,41,82,93.73958614,67.65,1.385655375,67.65,18364264.77,12493571.25,5870693.517,-88.3114218056247,43.7179768070828,"WI","Fond du Lac County",55039,"Fond du Lac County","WI",1,0,3,0,0.00058,0,0,93,0,130988,2,138,138,2444.46343340695,2.44446343340695
354,"Forward Wind Project",2008,1500,86,77,159.6554241,129,1.237638946,129,37622106.62,22663396.31,14958710.3,-88.5194275861996,43.6152023082601,"WI","Fond du Lac County",55027,"Dodge County","WI",10,0,3,0.00016,0.00016,0,0,92,0,143653,2,138,138,5789.13554664233,5.78913554664233
355,"NedPower Mount Storm, Phase I",2008,2000,83,80,190.0217552,166,1.144709368,166,51722102.76,28144363.04,23577739.71,-79.2119887553474,39.2164989931463,"WV","Grant County",54023,"Grant County","WV",1,0,5,0.00663,0.003579,0,0,68,1,146122,3,500,500,1812.35628973748,1.81235628973748
356,"NedPower Mount Storm, Phase II",2008,2000,47,80,108.0829306,94,1.14981841,94,28378249.1,15964066.95,12414182.15,-79.2153643491067,39.2136298929701,"WV","Grant County",54023,"Grant County","WV",1,0,5,0.00663,0.003579,0,0,68,1,146122,3,500,500,1397.85236875985,1.39785236875985
357,"Glenrock",2008,1500,66,77,0,99,0,85.6528196,18079206.87,9677060.801,8402146.064,-105.814680432455,43.0673647211591,"WY","Converse County",56009,"Converse County","WY",10,0,2,0.010616,0.003673,0,0,70,1,201373,3,230,115,5355.03236405755,5.35503236405755
358,"Happy Jack",2008,2100,14,88,0,29.4,0,25.43629188,5368976.584,2895157.131,2473819.453,-104.994305798144,41.1398527265013,"WY","Laramie County",56021,"Laramie County","WY",10,0,2,0.001988,0,0,0,94,0,204226,3,230,115,15686.9715736503,15.6869715736503
359,"Mountain Wind I",2008,2100,29,88,37.24480016,60.9,0.611573073,60.9,18059184.06,8292835.457,9766348.603,-110.500660482698,41.2912363182646,"WY","Uinta County",56041,"Uinta County","WY",30,0,3,0.011566,0.003661,0,0,81,1,204608,3,138,115,1844.68062001093,1.84468062001093
360,"Mountain Wind II",2008,2100,38,88,52.12372878,79.8,0.653179559,79.8,21535573.05,11085877.36,10449695.69,-110.544524268366,41.2670970894304,"WY","Uinta County",56041,"Uinta County","WY",20,0,3,0.011566,0.003661,0,0,81,1,204608,3,138,115,3625.33156750146,3.62533156750146
361,"Seven Mile Hill I & II",2008,1850,79,91,59.85232908,146.15,0.409526713,146.15,28279617.76,18045522.92,10234094.83,-106.396498799426,41.9490894205207,"WY","Carbon County",56007,"Carbon County","WY",20,0,2,0.010616,0.003673,0,0,68,1,202153,5,230,230,1227.82724438971,1.22782724438971
362,"Dry Lake",2009,2100,30,88,28.44939512,63,0.4515777,63,13287560.92,8466605.5,4820955.416,-110.28455856627,34.6549989955874,"AZ","Navajo County",4017,"Navajo County","AZ",1,0,4,0.003779,0.003629,0,0,85,1,300166,2,230,230,103153.408123177,103.153408123177
363,"Garnet Wind Project",2009,500,13,40,3.125370474,6.5,0.480826227,6.5,1853680.543,831917.0846,1021763.458,-116.582489,33.9051435,"CA","Riverside County",6065,"Riverside County","CA",1,0,2,0.000561,0.000476,7,8846,94,0,303773,1,115,115,1856.49687507143,1.85649687507143
364,"Barstow Marine Logistics Base",2009,1500,1,77,2.009999999,1.5,1.339999999,1.5,391403.6237,276292.9898,115110.6339,-116.959785,34.862396,"CA","San Bernardino County",6071,"San Bernardino County","CA",10,0,2,0.000561,0.000476,7,8792,91,0,302725,3,115,115,31647.8210593473,31.6478210593473
365,"Windland",2009,1500,1,77,0.428344809,1.5,0.285563206,1.5,464494.7554,176777.2007,287717.5547,-118.334381,35.091591,"CA","Kern County",6029,"Kern County","CA",10,0,3,0.006322,0.001217,16,21867,89,0,306225,4,500,220,27544.5664114979,27.5445664114979
366,"Pine Tree Wind Farm",2009,1500,80,77,157.6688678,120,1.313907232,120,33733708.63,22086541.73,11647166.9,-118.192697591294,35.2616505946596,"CA","Kern County",6029,"Kern County","CA",10,0,3,0.006322,0.001217,16,21867,89,0,306225,4,500,220,50010.136748834,50.010136748834
367,"Shiloh II",2009,2000,75,92.5,155.0032478,150,1.033354986,150,47145301.81,24426515.15,22718786.66,-121.802784853987,38.165611716185,"CA","Solano County",6095,"Solano County","CA",10,0,2,0.000317,0.000317,1,331,93,0,309954,4,230,230,5135.47691276854,5.13547691276854
